{"pk": 1294, "model": "vp.address", "fields": {"city": null, "display_address": null, "house_number": "1847", "state": null, "street": "14th Street Northwest", "postal_code": "20009"}}{"pk": 1294, "model": "vp.location", "fields": {"phone_number": "2022657839", "website": "http://www.saint-ex.com", "open_street_map_id": 60471261, "name": "Cafe Saint Ex", "product_categories": [], "address": 1294, "latitude": 38.9154323, "created_by": 1, "location_types": [2], "longitude": -77.0316916}}{"pk": 1295, "model": "vp.address", "fields": {"city": null, "display_address": null, "house_number": null, "state": null, "street": null, "postal_code": null}}{"pk": 1295, "model": "vp.location", "fields": {"phone_number": null, "website": null, "open_street_map_id": 462011957, "name": "1 West Dupont Circle Wine and Liquor", "product_categories": [1], "address": 1295, "latitude": 38.9094762, "created_by": 1, "location_types": [1], "longitude": -77.0454963}}{"pk": 1296, "model": "vp.address", "fields": {"city": null, "display_address": null, "house_number": null, "state": null, "street": null, "postal_code": null}}{"pk": 1296, "model": "vp.location", "fields": {"phone_number": null, "website": null, "open_street_map_id": 462011955, "name": "Goody's", "product_categories": [], "address": 1296, "latitude": 38.9094762, "created_by": 1, "location_types": [3], "longitude": -77.0453461}}{"pk": 1297, "model": "vp.address", "fields": {"city": null, "display_address": null, "house_number": null, "state": null, "street": null, "postal_code": null}}{"pk": 1297, "model": "vp.location", "fields": {"phone_number": null, "website": null, "open_street_map_id": 462011947, "name": "Al Tiramisu", "product_categories": [], "address": 1297, "latitude": 38.909472, "created_by": 1, "location_types": [3], "longitude": -77.0455821}}{"pk": 1298, "model": "vp.address", "fields": {"city": null, "display_address": null, "house_number": null, "state": null, "street": null, "postal_code": null}}{"pk": 1298, "model": "vp.location", "fields": {"phone_number": null, "website": null, "open_street_map_id": 462044729, "name": "Bangkok Thai Dining", "product_categories": [], "address": 1298, "latitude": 38.9094741, "created_by": 1, "location_types": [3], "longitude": -77.0456867}}{"pk": 1299, "model": "vp.address", "fields": {"city": null, "display_address": null, "house_number": null, "state": null, "street": null, "postal_code": null}}{"pk": 1299, "model": "vp.location", "fields": {"phone_number": null, "website": null, "open_street_map_id": 462044719, "name": "Stars Bistro & Bar", "product_categories": [], "address": 1299, "latitude": 38.9094616, "created_by": 1, "location_types": [2], "longitude": -77.0471164}}{"pk": 1300, "model": "vp.address", "fields": {"city": null, "display_address": null, "house_number": null, "state": null, "street": null, "postal_code": null}}{"pk": 1300, "model": "vp.location", "fields": {"phone_number": null, "website": null, "open_street_map_id": 462044728, "name": "Alberto's Pizza", "product_categories": [], "address": 1300, "latitude": 38.9095072, "created_by": 1, "location_types": [3], "longitude": -77.0454097}}{"pk": 1301, "model": "vp.address", "fields": {"city": null, "display_address": null, "house_number": null, "state": null, "street": null, "postal_code": null}}{"pk": 1301, "model": "vp.location", "fields": {"phone_number": null, "website": null, "open_street_map_id": 718492080, "name": "Urbana", "product_categories": [], "address": 1301, "latitude": 38.9097979, "created_by": 1, "location_types": [3], "longitude": -77.0471479}}{"pk": 1302, "model": "vp.address", "fields": {"city": null, "display_address": null, "house_number": null, "state": null, "street": null, "postal_code": null}}{"pk": 1302, "model": "vp.location", "fields": {"phone_number": null, "website": null, "open_street_map_id": 719191146, "name": "Hank's Oyster Bar", "product_categories": [], "address": 1302, "latitude": 38.9109196, "created_by": 1, "location_types": [3], "longitude": -77.0379671}}{"pk": 1303, "model": "vp.address", "fields": {"city": null, "display_address": null, "house_number": "1825", "state": null, "street": "Connecticut Avenue Northwest", "postal_code": null}}{"pk": 1303, "model": "vp.location", "fields": {"phone_number": null, "website": null, "open_street_map_id": 737066377, "name": "Buca Di Beppo", "product_categories": [], "address": 1303, "latitude": 38.9148929, "created_by": 1, "location_types": [3], "longitude": -77.0457749}}{"pk": 1304, "model": "vp.address", "fields": {"city": null, "display_address": null, "house_number": "1701", "state": null, "street": "Florida Avenue Northwest", "postal_code": null}}{"pk": 1304, "model": "vp.location", "fields": {"phone_number": null, "website": null, "open_street_map_id": 737066394, "name": "First Vine", "product_categories": [1], "address": 1304, "latitude": 38.9186006, "created_by": 1, "location_types": [1], "longitude": -77.0393303}}{"pk": 1305, "model": "vp.address", "fields": {"city": null, "display_address": null, "house_number": "2006", "state": null, "street": "18th Street Northwest", "postal_code": null}}{"pk": 1305, "model": "vp.location", "fields": {"phone_number": null, "website": null, "open_street_map_id": 737066405, "name": "Bobby Lew's", "product_categories": [], "address": 1305, "latitude": 38.9172638, "created_by": 1, "location_types": [2], "longitude": -77.0418796}}{"pk": 1306, "model": "vp.address", "fields": {"city": null, "display_address": null, "house_number": "1785", "state": null, "street": "Florida Avenue Northwest", "postal_code": null}}{"pk": 1306, "model": "vp.location", "fields": {"phone_number": null, "website": null, "open_street_map_id": 737066416, "name": "El Tamarindo", "product_categories": [], "address": 1306, "latitude": 38.9171664, "created_by": 1, "location_types": [3], "longitude": -77.0412581}}{"pk": 1307, "model": "vp.address", "fields": {"city": null, "display_address": null, "house_number": "1771", "state": null, "street": "U Street Northwest", "postal_code": null}}{"pk": 1307, "model": "vp.location", "fields": {"phone_number": null, "website": null, "open_street_map_id": 737066397, "name": "Dahlak Restaurant", "product_categories": [], "address": 1307, "latitude": 38.9171542, "created_by": 1, "location_types": [3], "longitude": -77.0413852}}{"pk": 1308, "model": "vp.address", "fields": {"city": null, "display_address": null, "house_number": "1805", "state": null, "street": "Connecticut Avenue Northwest", "postal_code": null}}{"pk": 1308, "model": "vp.location", "fields": {"phone_number": null, "website": null, "open_street_map_id": 737066381, "name": "The Fab Lounge", "product_categories": [], "address": 1308, "latitude": 38.9143559, "created_by": 1, "location_types": [2], "longitude": -77.0457988}}{"pk": 1309, "model": "vp.address", "fields": {"city": null, "display_address": null, "house_number": null, "state": null, "street": null, "postal_code": null}}{"pk": 1309, "model": "vp.location", "fields": {"phone_number": null, "website": null, "open_street_map_id": 719191272, "name": "Duke's Grocery", "product_categories": [], "address": 1309, "latitude": 38.910153, "created_by": 1, "location_types": [3], "longitude": -77.038299}}{"pk": 1310, "model": "vp.address", "fields": {"city": null, "display_address": null, "house_number": "2123", "state": null, "street": "14th Street Northwest", "postal_code": null}}{"pk": 1310, "model": "vp.location", "fields": {"phone_number": null, "website": null, "open_street_map_id": 735126444, "name": "Yes! Organic", "product_categories": [2], "address": 1310, "latitude": 38.9186373, "created_by": 1, "location_types": [1], "longitude": -77.0317099}}{"pk": 1311, "model": "vp.address", "fields": {"city": null, "display_address": null, "house_number": "1440", "state": null, "street": "P Street Northwest", "postal_code": null}}{"pk": 1311, "model": "vp.location", "fields": {"phone_number": "2023324300", "website": null, "open_street_map_id": 735126449, "name": "Whole Foods", "product_categories": [2], "address": 1311, "latitude": 38.9094423, "created_by": 1, "location_types": [1], "longitude": -77.0335553}}{"pk": 1312, "model": "vp.address", "fields": {"city": null, "display_address": null, "house_number": "2004", "state": null, "street": "18th Street Northwest", "postal_code": null}}{"pk": 1312, "model": "vp.location", "fields": {"phone_number": null, "website": null, "open_street_map_id": 737066563, "name": "Duplex Diner", "product_categories": [], "address": 1312, "latitude": 38.917216, "created_by": 1, "location_types": [3], "longitude": -77.0418784}}{"pk": 1313, "model": "vp.address", "fields": {"city": null, "display_address": null, "house_number": "2003", "state": null, "street": "18th Street Northwest", "postal_code": null}}{"pk": 1313, "model": "vp.location", "fields": {"phone_number": null, "website": null, "open_street_map_id": 737066295, "name": "The Blaguard", "product_categories": [], "address": 1313, "latitude": 38.9172929, "created_by": 1, "location_types": [2], "longitude": -77.0414228}}{"pk": 1314, "model": "vp.address", "fields": {"city": null, "display_address": null, "house_number": "2020", "state": null, "street": "Florida Avenue Northwest", "postal_code": null}}{"pk": 1314, "model": "vp.location", "fields": {"phone_number": null, "website": null, "open_street_map_id": 737066426, "name": "Banana Leaves", "product_categories": [], "address": 1314, "latitude": 38.9144873, "created_by": 1, "location_types": [3], "longitude": -77.0455899}}{"pk": 1315, "model": "vp.address", "fields": {"city": null, "display_address": null, "house_number": "2018", "state": null, "street": "Florida Avenue Northwest", "postal_code": null}}{"pk": 1315, "model": "vp.location", "fields": {"phone_number": null, "website": null, "open_street_map_id": 737066311, "name": "Universal Liquors", "product_categories": [1], "address": 1315, "latitude": 38.9145425, "created_by": 1, "location_types": [1], "longitude": -77.0455394}}{"pk": 1316, "model": "vp.address", "fields": {"city": null, "display_address": null, "house_number": "1776", "state": null, "street": "U Street Northwest", "postal_code": null}}{"pk": 1316, "model": "vp.location", "fields": {"phone_number": null, "website": null, "open_street_map_id": 737066316, "name": "Virginia Market", "product_categories": [3], "address": 1316, "latitude": 38.9167673, "created_by": 1, "location_types": [1], "longitude": -77.0411555}}{"pk": 1317, "model": "vp.address", "fields": {"city": "Washington", "display_address": null, "house_number": "2106", "state": "DC", "street": "18th Street Northwest", "postal_code": null}}{"pk": 1317, "model": "vp.location", "fields": {"phone_number": null, "website": null, "open_street_map_id": 737066358, "name": "Casa Oaxaca", "product_categories": [], "address": 1317, "latitude": 38.9181226, "created_by": 1, "location_types": [3], "longitude": -77.0419251}}{"pk": 1318, "model": "vp.address", "fields": {"city": null, "display_address": null, "house_number": "2029", "state": null, "street": "P Street Northwest", "postal_code": null}}{"pk": 1318, "model": "vp.location", "fields": {"phone_number": null, "website": null, "open_street_map_id": 739339909, "name": "Obelisk", "product_categories": [], "address": 1318, "latitude": 38.9098337, "created_by": 1, "location_types": [3], "longitude": -77.0462683}}{"pk": 1319, "model": "vp.address", "fields": {"city": null, "display_address": null, "house_number": "2000", "state": null, "street": "Massachusetts Avenue Northwest", "postal_code": null}}{"pk": 1319, "model": "vp.location", "fields": {"phone_number": null, "website": null, "open_street_map_id": 739339865, "name": "Pizzeria Paradiso", "product_categories": [], "address": 1319, "latitude": 38.9098015, "created_by": 1, "location_types": [3], "longitude": -77.0451843}}{"pk": 1320, "model": "vp.address", "fields": {"city": null, "display_address": null, "house_number": "1915", "state": null, "street": "18th Street Northwest", "postal_code": null}}{"pk": 1320, "model": "vp.location", "fields": {"phone_number": null, "website": null, "open_street_map_id": 739339947, "name": "Plum Blossom", "product_categories": [], "address": 1320, "latitude": 38.9160278, "created_by": 1, "location_types": [3], "longitude": -77.0413931}}{"pk": 1321, "model": "vp.address", "fields": {"city": null, "display_address": null, "house_number": "2147", "state": null, "street": "P Street Northwest", "postal_code": null}}{"pk": 1321, "model": "vp.location", "fields": {"phone_number": null, "website": null, "open_street_map_id": 739340015, "name": "Marrakesh Palace Pasha Lounge", "product_categories": [], "address": 1321, "latitude": 38.9098166, "created_by": 1, "location_types": [3], "longitude": -77.0481813}}{"pk": 1322, "model": "vp.address", "fields": {"city": null, "display_address": null, "house_number": "2153", "state": null, "street": "P Street Northwest", "postal_code": null}}{"pk": 1322, "model": "vp.location", "fields": {"phone_number": null, "website": null, "open_street_map_id": 739340010, "name": "Pho EurAsian", "product_categories": [], "address": 1322, "latitude": 38.9097989, "created_by": 1, "location_types": [3], "longitude": -77.048341}}{"pk": 1323, "model": "vp.address", "fields": {"city": null, "display_address": null, "house_number": "2132", "state": null, "street": "Florida Avenue Northwest", "postal_code": null}}{"pk": 1323, "model": "vp.location", "fields": {"phone_number": "202-462-5143", "website": "http://www.noras.com", "open_street_map_id": 739339992, "name": "Restaurant Nora", "product_categories": [], "address": 1323, "latitude": 38.9127464, "created_by": 1, "location_types": [3], "longitude": -77.0472653}}{"pk": 1324, "model": "vp.address", "fields": {"city": null, "display_address": null, "house_number": "2159", "state": null, "street": "P Street Northwest", "postal_code": null}}{"pk": 1324, "model": "vp.location", "fields": {"phone_number": null, "website": null, "open_street_map_id": 739339969, "name": "State Liquors", "product_categories": [1], "address": 1324, "latitude": 38.9098256, "created_by": 1, "location_types": [1], "longitude": -77.0485212}}{"pk": 1325, "model": "vp.address", "fields": {"city": null, "display_address": null, "house_number": "1711", "state": null, "street": "17th Street Northwest", "postal_code": null}}{"pk": 1325, "model": "vp.location", "fields": {"phone_number": null, "website": null, "open_street_map_id": 739340098, "name": "Rose Bud Liquor's Store", "product_categories": [1], "address": 1325, "latitude": 38.9129698, "created_by": 1, "location_types": [1], "longitude": -77.0382007}}{"pk": 1326, "model": "vp.address", "fields": {"city": null, "display_address": null, "house_number": "1835", "state": null, "street": "18th Street Northwest", "postal_code": null}}{"pk": 1326, "model": "vp.location", "fields": {"phone_number": null, "website": null, "open_street_map_id": 739340061, "name": "Lauriol Plaza Restaurant", "product_categories": [], "address": 1326, "latitude": 38.9153471, "created_by": 1, "location_types": [3], "longitude": -77.0414253}}{"pk": 1327, "model": "vp.address", "fields": {"city": null, "display_address": null, "house_number": "1732", "state": null, "street": "Connecticut Avenue Northwest", "postal_code": null}}{"pk": 1327, "model": "vp.location", "fields": {"phone_number": null, "website": null, "open_street_map_id": 739340057, "name": "Mourayo", "product_categories": [], "address": 1327, "latitude": 38.9136169, "created_by": 1, "location_types": [3], "longitude": -77.0461128}}{"pk": 1328, "model": "vp.address", "fields": {"city": null, "display_address": null, "house_number": "1666", "state": null, "street": "Connecticut Avenue Northwest", "postal_code": null}}{"pk": 1328, "model": "vp.location", "fields": {"phone_number": null, "website": null, "open_street_map_id": 739339973, "name": "Sette", "product_categories": [], "address": 1328, "latitude": 38.9124242, "created_by": 1, "location_types": [3], "longitude": -77.0454752}}{"pk": 1329, "model": "vp.address", "fields": {"city": null, "display_address": null, "house_number": "1606", "state": null, "street": "20th Street Northwest", "postal_code": null}}{"pk": 1329, "model": "vp.location", "fields": {"phone_number": null, "website": null, "open_street_map_id": 739340074, "name": "One Lounge", "product_categories": [], "address": 1329, "latitude": 38.9112951, "created_by": 1, "location_types": [2], "longitude": -77.0450783}}{"pk": 1330, "model": "vp.address", "fields": {"city": null, "display_address": null, "house_number": "1637", "state": null, "street": "R Street Northwest", "postal_code": null}}{"pk": 1330, "model": "vp.location", "fields": {"phone_number": null, "website": null, "open_street_map_id": 739340086, "name": "Town House Tavern Restaurant", "product_categories": [], "address": 1330, "latitude": 38.9127992, "created_by": 1, "location_types": [3], "longitude": -77.0381073}}{"pk": 1331, "model": "vp.address", "fields": {"city": null, "display_address": null, "house_number": "1714", "state": null, "street": "Connecticut Avenue Northwest", "postal_code": null}}{"pk": 1331, "model": "vp.location", "fields": {"phone_number": null, "website": null, "open_street_map_id": 739339971, "name": "Odeon Cafe", "product_categories": [], "address": 1331, "latitude": 38.9131171, "created_by": 1, "location_types": [3], "longitude": -77.0458213}}{"pk": 1332, "model": "vp.address", "fields": {"city": null, "display_address": null, "house_number": "1515", "state": null, "street": "14th Street Northwest", "postal_code": null}}{"pk": 1332, "model": "vp.location", "fields": {"phone_number": "202-332-8613", "website": null, "open_street_map_id": 741013050, "name": "Posto", "product_categories": [], "address": 1332, "latitude": 38.9103069, "created_by": 1, "location_types": [3], "longitude": -77.0316163}}{"pk": 1333, "model": "vp.address", "fields": {"city": "Washington", "display_address": null, "house_number": "1720", "state": "DC", "street": "14th Street Northwest", "postal_code": "20009"}}{"pk": 1333, "model": "vp.location", "fields": {"phone_number": null, "website": "http://www.corkdc.com", "open_street_map_id": 741013079, "name": "Cork Wine Bar", "product_categories": [], "address": 1333, "latitude": 38.913322, "created_by": 1, "location_types": [2], "longitude": -77.0322326}}{"pk": 1334, "model": "vp.address", "fields": {"city": null, "display_address": null, "house_number": "1450", "state": null, "street": "P Street Northwest", "postal_code": null}}{"pk": 1334, "model": "vp.location", "fields": {"phone_number": null, "website": null, "open_street_map_id": 741013095, "name": "Best-in Liquors", "product_categories": [1], "address": 1334, "latitude": 38.909408, "created_by": 1, "location_types": [1], "longitude": -77.0339276}}{"pk": 1335, "model": "vp.address", "fields": {"city": "Washington", "display_address": null, "house_number": "1409", "state": null, "street": "14th Street Northwest", "postal_code": null}}{"pk": 1335, "model": "vp.location", "fields": {"phone_number": null, "website": null, "open_street_map_id": 741013086, "name": "1409 Playbill Cafe", "product_categories": [], "address": 1335, "latitude": 38.9093736, "created_by": 1, "location_types": [2], "longitude": -77.0316803}}{"pk": 1336, "model": "vp.address", "fields": {"city": null, "display_address": null, "house_number": "2160", "state": null, "street": "California Street Northwest", "postal_code": null}}{"pk": 1336, "model": "vp.location", "fields": {"phone_number": null, "website": null, "open_street_map_id": 740372207, "name": "Embassy Market", "product_categories": [3], "address": 1336, "latitude": 38.9159734, "created_by": 1, "location_types": [1], "longitude": -77.0486686}}{"pk": 1337, "model": "vp.address", "fields": {"city": null, "display_address": null, "house_number": "2100", "state": null, "street": "Connecticut Avenue Northwest", "postal_code": null}}{"pk": 1337, "model": "vp.location", "fields": {"phone_number": null, "website": null, "open_street_map_id": 740372204, "name": "Pines Of Florence", "product_categories": [], "address": 1337, "latitude": 38.9179474, "created_by": 1, "location_types": [3], "longitude": -77.047724}}{"pk": 1338, "model": "vp.address", "fields": {"city": null, "display_address": null, "house_number": "1904", "state": null, "street": "14th Street Northwest", "postal_code": null}}{"pk": 1338, "model": "vp.location", "fields": {"phone_number": null, "website": "http://www.policydc.com/", "open_street_map_id": 750467850, "name": "Policy", "product_categories": [], "address": 1338, "latitude": 38.9157691, "created_by": 1, "location_types": [3], "longitude": -77.0321889}}{"pk": 1339, "model": "vp.address", "fields": {"city": null, "display_address": null, "house_number": "1901", "state": null, "street": "New Hampshire Avenue Northwest", "postal_code": null}}{"pk": 1339, "model": "vp.location", "fields": {"phone_number": null, "website": null, "open_street_map_id": 750467834, "name": "Freedom Market", "product_categories": [3], "address": 1339, "latitude": 38.9157515, "created_by": 1, "location_types": [1], "longitude": -77.0374169}}{"pk": 1340, "model": "vp.address", "fields": {"city": null, "display_address": null, "house_number": "2011", "state": null, "street": "14th Street Northwest", "postal_code": null}}{"pk": 1340, "model": "vp.location", "fields": {"phone_number": null, "website": null, "open_street_map_id": 750467937, "name": "Bestway Liquors", "product_categories": [1], "address": 1340, "latitude": 38.917424, "created_by": 1, "location_types": [1], "longitude": -77.031705}}{"pk": 1341, "model": "vp.address", "fields": {"city": null, "display_address": null, "house_number": "2017", "state": null, "street": "14th Street Northwest", "postal_code": null}}{"pk": 1341, "model": "vp.location", "fields": {"phone_number": null, "website": null, "open_street_map_id": 750467916, "name": "Jin", "product_categories": [], "address": 1341, "latitude": 38.9176386, "created_by": 1, "location_types": [3], "longitude": -77.0316179}}{"pk": 1342, "model": "vp.address", "fields": {"city": "Washington", "display_address": null, "house_number": "1438", "state": "DC", "street": "U Street Northwest", "postal_code": null}}{"pk": 1342, "model": "vp.location", "fields": {"phone_number": null, "website": null, "open_street_map_id": 750467863, "name": "Station 9", "product_categories": [], "address": 1342, "latitude": 38.9167982, "created_by": 1, "location_types": [2], "longitude": -77.0328479}}{"pk": 1343, "model": "vp.address", "fields": {"city": "Washington", "display_address": null, "house_number": "1518", "state": "DC", "street": "U Street Northwest", "postal_code": "20009"}}{"pk": 1343, "model": "vp.location", "fields": {"phone_number": null, "website": null, "open_street_map_id": 750467948, "name": "JoJo Restaurant & Bar", "product_categories": [], "address": 1343, "latitude": 38.9168375, "created_by": 1, "location_types": [2], "longitude": -77.0353832}}{"pk": 1344, "model": "vp.address", "fields": {"city": "Washington", "display_address": null, "house_number": "1507", "state": "DC", "street": "U Street Northwest", "postal_code": null}}{"pk": 1344, "model": "vp.location", "fields": {"phone_number": null, "website": null, "open_street_map_id": 750467912, "name": "Best Supermarket", "product_categories": [3], "address": 1344, "latitude": 38.9171581, "created_by": 1, "location_types": [1], "longitude": -77.0350333}}{"pk": 1345, "model": "vp.address", "fields": {"city": "Washington", "display_address": null, "house_number": "1610", "state": "DC", "street": "U Street Northwest", "postal_code": null}}{"pk": 1345, "model": "vp.location", "fields": {"phone_number": null, "website": null, "open_street_map_id": 750467889, "name": "Stetsons", "product_categories": [], "address": 1345, "latitude": 38.916787, "created_by": 1, "location_types": [2], "longitude": -77.037315}}{"pk": 1346, "model": "vp.address", "fields": {"city": "Washington", "display_address": null, "house_number": "1624", "state": "DC", "street": "U Street Northwest", "postal_code": null}}{"pk": 1346, "model": "vp.location", "fields": {"phone_number": null, "website": null, "open_street_map_id": 750467958, "name": "Chi-Cha Lounge", "product_categories": [], "address": 1346, "latitude": 38.9167893, "created_by": 1, "location_types": [2], "longitude": -77.0378895}}{"pk": 1347, "model": "vp.address", "fields": {"city": "Washington", "display_address": null, "house_number": "1600", "state": "DC", "street": "U Street Northwest", "postal_code": null}}{"pk": 1347, "model": "vp.location", "fields": {"phone_number": null, "website": null, "open_street_map_id": 750467844, "name": "Local 16", "product_categories": [], "address": 1347, "latitude": 38.9167985, "created_by": 1, "location_types": [2], "longitude": -77.0370718}}{"pk": 1348, "model": "vp.address", "fields": {"city": null, "display_address": null, "house_number": null, "state": null, "street": null, "postal_code": null}}{"pk": 1348, "model": "vp.location", "fields": {"phone_number": null, "website": null, "open_street_map_id": 753311472, "name": "Cantina Pub", "product_categories": [], "address": 1348, "latitude": 38.9115205, "created_by": 1, "location_types": [2], "longitude": -77.0451078}}{"pk": 1349, "model": "vp.address", "fields": {"city": null, "display_address": null, "house_number": "1910", "state": null, "street": "18th Street Northwest", "postal_code": null}}{"pk": 1349, "model": "vp.location", "fields": {"phone_number": null, "website": null, "open_street_map_id": 739339904, "name": "The Regent Thai Cuisine", "product_categories": [], "address": 1349, "latitude": 38.9160172, "created_by": 1, "location_types": [3], "longitude": -77.0418939}}{"pk": 1350, "model": "vp.address", "fields": {"city": null, "display_address": null, "house_number": null, "state": null, "street": null, "postal_code": null}}{"pk": 1350, "model": "vp.location", "fields": {"phone_number": null, "website": null, "open_street_map_id": 753309109, "name": "Darlington House", "product_categories": [], "address": 1350, "latitude": 38.9115601, "created_by": 1, "location_types": [3], "longitude": -77.0451078}}{"pk": 1351, "model": "vp.address", "fields": {"city": null, "display_address": null, "house_number": "2011", "state": null, "street": "S Street Northwest", "postal_code": null}}{"pk": 1351, "model": "vp.location", "fields": {"phone_number": null, "website": null, "open_street_map_id": 739340088, "name": "Thaiphoon", "product_categories": [], "address": 1351, "latitude": 38.9143192, "created_by": 1, "location_types": [3], "longitude": -77.0454397}}{"pk": 1352, "model": "vp.address", "fields": {"city": null, "display_address": null, "house_number": "1726", "state": null, "street": "Connecticut Avenue Northwest", "postal_code": null}}{"pk": 1352, "model": "vp.location", "fields": {"phone_number": null, "website": null, "open_street_map_id": 739339994, "name": "Maddy's Bar and Grille", "product_categories": [], "address": 1352, "latitude": 38.9134678, "created_by": 1, "location_types": [2], "longitude": -77.0460322}}{"pk": 1353, "model": "vp.address", "fields": {"city": null, "display_address": null, "house_number": "1800", "state": null, "street": "Connecticut Avenue Northwest", "postal_code": null}}{"pk": 1353, "model": "vp.location", "fields": {"phone_number": null, "website": null, "open_street_map_id": 740372208, "name": "Russia House", "product_categories": [], "address": 1353, "latitude": 38.9143854, "created_by": 1, "location_types": [2], "longitude": -77.0465065}}{"pk": 1354, "model": "vp.address", "fields": {"city": null, "display_address": null, "house_number": "1712", "state": null, "street": "Connecticut Avenue Northwest", "postal_code": null}}{"pk": 1354, "model": "vp.location", "fields": {"phone_number": null, "website": null, "open_street_map_id": 739340004, "name": "Thai Chef", "product_categories": [], "address": 1354, "latitude": 38.913047, "created_by": 1, "location_types": [3], "longitude": -77.0457725}}{"pk": 1355, "model": "vp.address", "fields": {"city": null, "display_address": null, "house_number": "2017", "state": null, "street": "S Street Northwest", "postal_code": null}}{"pk": 1355, "model": "vp.location", "fields": {"phone_number": null, "website": null, "open_street_map_id": 739339948, "name": "Ruth's Chris Steak House", "product_categories": [], "address": 1355, "latitude": 38.9142489, "created_by": 1, "location_types": [3], "longitude": -77.0457124}}{"pk": 1356, "model": "vp.address", "fields": {"city": null, "display_address": null, "house_number": "1736", "state": null, "street": "Connecticut Avenue Northwest", "postal_code": null}}{"pk": 1356, "model": "vp.location", "fields": {"phone_number": null, "website": null, "open_street_map_id": 739339960, "name": "Dalchinni", "product_categories": [], "address": 1356, "latitude": 38.9137173, "created_by": 1, "location_types": [3], "longitude": -77.0461374}}{"pk": 1357, "model": "vp.address", "fields": {"city": null, "display_address": null, "house_number": "2031", "state": null, "street": "Florida Avenue Northwest", "postal_code": null}}{"pk": 1357, "model": "vp.location", "fields": {"phone_number": null, "website": null, "open_street_map_id": 740372206, "name": "Veritas Wine Bar", "product_categories": [], "address": 1357, "latitude": 38.9143053, "created_by": 1, "location_types": [2], "longitude": -77.046589}}{"pk": 1358, "model": "vp.address", "fields": {"city": null, "display_address": null, "house_number": "1523", "state": null, "street": "22nd Street Northwest", "postal_code": null}}{"pk": 1358, "model": "vp.location", "fields": {"phone_number": null, "website": null, "open_street_map_id": 739339945, "name": "Bier Baron", "product_categories": [], "address": 1358, "latitude": 38.9102954, "created_by": 1, "location_types": [2], "longitude": -77.0484778}}{"pk": 1359, "model": "vp.address", "fields": {"city": "Washington", "display_address": null, "house_number": "2122", "state": null, "street": "P Street Northwest", "postal_code": null}}{"pk": 1359, "model": "vp.location", "fields": {"phone_number": null, "website": "http://omegadc.com", "open_street_map_id": 739339990, "name": "Omega", "product_categories": [], "address": 1359, "latitude": 38.909194, "created_by": 1, "location_types": [2], "longitude": -77.0475427}}{"pk": 1360, "model": "vp.address", "fields": {"city": "Washington", "display_address": null, "house_number": "1519", "state": null, "street": "17th Street Northwest", "postal_code": "20036"}}{"pk": 1360, "model": "vp.location", "fields": {"phone_number": null, "website": null, "open_street_map_id": 739339956, "name": "JR's Bar and Grill", "product_categories": [], "address": 1360, "latitude": 38.9104732, "created_by": 1, "location_types": [2], "longitude": -77.0381978}}{"pk": 1361, "model": "vp.address", "fields": {"city": null, "display_address": null, "house_number": "1443", "state": null, "street": "P Street Northwest", "postal_code": null}}{"pk": 1361, "model": "vp.location", "fields": {"phone_number": null, "website": null, "open_street_map_id": 741013103, "name": "Commissary", "product_categories": [], "address": 1361, "latitude": 38.9098062, "created_by": 1, "location_types": [3], "longitude": -77.0335076}}{"pk": 1362, "model": "vp.address", "fields": {"city": null, "display_address": null, "house_number": "1", "state": null, "street": "Dupont Circle Northwest", "postal_code": null}}{"pk": 1362, "model": "vp.location", "fields": {"phone_number": null, "website": null, "open_street_map_id": 739339857, "name": "James Hoban's", "product_categories": [], "address": 1362, "latitude": 38.9090534, "created_by": 1, "location_types": [2], "longitude": -77.0442579}}{"pk": 1363, "model": "vp.address", "fields": {"city": null, "display_address": null, "house_number": "1509", "state": null, "street": "17th Street Northwest", "postal_code": null}}{"pk": 1363, "model": "vp.location", "fields": {"phone_number": null, "website": null, "open_street_map_id": 739339889, "name": "Komi", "product_categories": [], "address": 1363, "latitude": 38.910096, "created_by": 1, "location_types": [3], "longitude": -77.0382584}}{"pk": 1364, "model": "vp.address", "fields": {"city": null, "display_address": null, "house_number": "1423", "state": null, "street": "P Street Northwest", "postal_code": null}}{"pk": 1364, "model": "vp.location", "fields": {"phone_number": null, "website": null, "open_street_map_id": 741013084, "name": "Logan Tavern", "product_categories": [], "address": 1364, "latitude": 38.9097989, "created_by": 1, "location_types": [3], "longitude": -77.0328835}}{"pk": 1365, "model": "vp.address", "fields": {"city": null, "display_address": null, "house_number": "1523", "state": null, "street": "17th Street Northwest", "postal_code": null}}{"pk": 1365, "model": "vp.location", "fields": {"phone_number": null, "website": null, "open_street_map_id": 739339987, "name": "Pasha Bistro", "product_categories": [], "address": 1365, "latitude": 38.9105671, "created_by": 1, "location_types": [3], "longitude": -77.0382072}}{"pk": 1366, "model": "vp.address", "fields": {"city": null, "display_address": null, "house_number": "1503", "state": null, "street": "17th Street Northwest", "postal_code": null}}{"pk": 1366, "model": "vp.location", "fields": {"phone_number": null, "website": null, "open_street_map_id": 739339929, "name": "Sushi Taro", "product_categories": [], "address": 1366, "latitude": 38.909944, "created_by": 1, "location_types": [3], "longitude": -77.0382421}}{"pk": 1367, "model": "vp.address", "fields": {"city": null, "display_address": null, "house_number": "1415", "state": null, "street": "P Street Northwest", "postal_code": null}}{"pk": 1367, "model": "vp.location", "fields": {"phone_number": null, "website": null, "open_street_map_id": 741013055, "name": "Vegas Lounge", "product_categories": [], "address": 1367, "latitude": 38.9098587, "created_by": 1, "location_types": [2], "longitude": -77.0326181}}{"pk": 1368, "model": "vp.address", "fields": {"city": null, "display_address": null, "house_number": "2130", "state": null, "street": "P Street Northwest", "postal_code": null}}{"pk": 1368, "model": "vp.location", "fields": {"phone_number": null, "website": null, "open_street_map_id": 739339963, "name": "Metro Supermarket", "product_categories": [2], "address": 1368, "latitude": 38.9094782, "created_by": 1, "location_types": [1], "longitude": -77.0479345}}{"pk": 1369, "model": "vp.address", "fields": {"city": null, "display_address": null, "house_number": "2024", "state": null, "street": "P Street Northwest", "postal_code": null}}{"pk": 1369, "model": "vp.location", "fields": {"phone_number": null, "website": null, "open_street_map_id": 739339895, "name": "Oasis", "product_categories": [3], "address": 1369, "latitude": 38.9094669, "created_by": 1, "location_types": [1], "longitude": -77.0460371}}{"pk": 1370, "model": "vp.address", "fields": {"city": null, "display_address": null, "house_number": "2002", "state": null, "street": "P Street Northwest", "postal_code": null}}{"pk": 1370, "model": "vp.location", "fields": {"phone_number": null, "website": null, "open_street_map_id": 739340091, "name": "Pesce", "product_categories": [], "address": 1370, "latitude": 38.9094741, "created_by": 1, "location_types": [3], "longitude": -77.0456438}}{"pk": 1371, "model": "vp.address", "fields": {"city": null, "display_address": null, "house_number": "2026", "state": null, "street": "P Street Northwest", "postal_code": null}}{"pk": 1371, "model": "vp.location", "fields": {"phone_number": null, "website": null, "open_street_map_id": 739340038, "name": "Sakana Japanese Restaurant", "product_categories": [], "address": 1371, "latitude": 38.9094574, "created_by": 1, "location_types": [3], "longitude": -77.0461025}}{"pk": 1372, "model": "vp.address", "fields": {"city": null, "display_address": null, "house_number": "2100", "state": null, "street": "P Street Northwest", "postal_code": null}}{"pk": 1372, "model": "vp.location", "fields": {"phone_number": null, "website": null, "open_street_map_id": 739339897, "name": "Scion Restaurant", "product_categories": [], "address": 1372, "latitude": 38.9094741, "created_by": 1, "location_types": [3], "longitude": -77.0468669}}{"pk": 1373, "model": "vp.address", "fields": {"city": null, "display_address": null, "house_number": "2122", "state": null, "street": "P Street Northwest", "postal_code": null}}{"pk": 1373, "model": "vp.location", "fields": {"phone_number": null, "website": null, "open_street_map_id": 739339998, "name": "Uni A Sushi Place", "product_categories": [], "address": 1373, "latitude": 38.9094386, "created_by": 1, "location_types": [3], "longitude": -77.0476179}}{"pk": 1374, "model": "vp.address", "fields": {"city": null, "display_address": null, "house_number": "1900", "state": null, "street": "16th Street Northwest", "postal_code": null}}{"pk": 1374, "model": "vp.location", "fields": {"phone_number": null, "website": null, "open_street_map_id": 750467953, "name": "New Hampshire Market", "product_categories": [3], "address": 1374, "latitude": 38.9157179, "created_by": 1, "location_types": [1], "longitude": -77.0368553}}{"pk": 1375, "model": "vp.address", "fields": {"city": null, "display_address": null, "house_number": "1524", "state": null, "street": "U Street Northwest", "postal_code": null}}{"pk": 1375, "model": "vp.location", "fields": {"phone_number": null, "website": null, "open_street_map_id": 750467957, "name": "Selam Restaurant", "product_categories": [], "address": 1375, "latitude": 38.9167971, "created_by": 1, "location_types": [3], "longitude": -77.0357409}}{"pk": 1376, "model": "vp.address", "fields": {"city": null, "display_address": null, "house_number": "1833", "state": null, "street": "14th Street Northwest", "postal_code": null}}{"pk": 1376, "model": "vp.location", "fields": {"phone_number": null, "website": "http://www.barpilar.com/", "open_street_map_id": 750467821, "name": "Bar Pilar", "product_categories": [], "address": 1376, "latitude": 38.9151255, "created_by": 1, "location_types": [2], "longitude": -77.0315828}}{"pk": 1377, "model": "vp.address", "fields": {"city": null, "display_address": null, "house_number": "1340", "state": null, "street": "U Street Northwest", "postal_code": null}}{"pk": 1377, "model": "vp.location", "fields": {"phone_number": null, "website": null, "open_street_map_id": 750467877, "name": "Bistro La Bonne", "product_categories": [], "address": 1377, "latitude": 38.9168075, "created_by": 1, "location_types": [3], "longitude": -77.0311796}}{"pk": 1378, "model": "vp.address", "fields": {"city": null, "display_address": null, "house_number": "1414", "state": null, "street": "U Street Northwest", "postal_code": null}}{"pk": 1378, "model": "vp.location", "fields": {"phone_number": null, "website": null, "open_street_map_id": 750467920, "name": "Coppi's Pizza", "product_categories": [], "address": 1378, "latitude": 38.9168408, "created_by": 1, "location_types": [3], "longitude": -77.0326008}}{"pk": 1379, "model": "vp.address", "fields": {"city": null, "display_address": null, "house_number": "1415", "state": null, "street": "14th Street Northwest", "postal_code": null}}{"pk": 1379, "model": "vp.location", "fields": {"phone_number": null, "website": null, "open_street_map_id": 741013065, "name": "Lalibela Ethiopian Restaurant", "product_categories": [], "address": 1379, "latitude": 38.9095074, "created_by": 1, "location_types": [3], "longitude": -77.0316481}}{"pk": 1380, "model": "vp.address", "fields": {"city": null, "display_address": null, "house_number": "1825", "state": null, "street": "14th Street Northwest", "postal_code": null}}{"pk": 1380, "model": "vp.location", "fields": {"phone_number": null, "website": "http://masa14.com/", "open_street_map_id": 750467868, "name": "MASA 14", "product_categories": [], "address": 1380, "latitude": 38.9148861, "created_by": 1, "location_types": [3], "longitude": -77.0315481}}{"pk": 1381, "model": "vp.address", "fields": {"city": null, "display_address": null, "house_number": "2007", "state": null, "street": "14th Street Northwest", "postal_code": null}}{"pk": 1381, "model": "vp.location", "fields": {"phone_number": null, "website": null, "open_street_map_id": 750467870, "name": "Marvin", "product_categories": [], "address": 1381, "latitude": 38.9173168, "created_by": 1, "location_types": [3], "longitude": -77.0316258}}{"pk": 1382, "model": "vp.address", "fields": {"city": null, "display_address": null, "house_number": "1608", "state": null, "street": "14th Street Northwest", "postal_code": null}}{"pk": 1382, "model": "vp.location", "fields": {"phone_number": null, "website": "http://ricerestaurant.com/", "open_street_map_id": 741013092, "name": "Rice Restaurant & Bar", "product_categories": [], "address": 1382, "latitude": 38.9114943, "created_by": 1, "location_types": [3], "longitude": -77.0322833}}{"pk": 1383, "model": "vp.address", "fields": {"city": null, "display_address": null, "house_number": "1336", "state": null, "street": "U Street Northwest", "postal_code": null}}{"pk": 1383, "model": "vp.location", "fields": {"phone_number": null, "website": null, "open_street_map_id": 750467826, "name": "Tabaq", "product_categories": [], "address": 1383, "latitude": 38.9168108, "created_by": 1, "location_types": [3], "longitude": -77.0310472}}{"pk": 1384, "model": "vp.address", "fields": {"city": null, "display_address": null, "house_number": "2009", "state": null, "street": "14th Street Northwest", "postal_code": null}}{"pk": 1384, "model": "vp.location", "fields": {"phone_number": null, "website": null, "open_street_map_id": 750467852, "name": "The Gibson", "product_categories": [], "address": 1384, "latitude": 38.9173696, "created_by": 1, "location_types": [3], "longitude": -77.0316423}}{"pk": 1385, "model": "vp.address", "fields": {"city": null, "display_address": null, "house_number": "1344", "state": null, "street": "U Street Northwest", "postal_code": null}}{"pk": 1385, "model": "vp.location", "fields": {"phone_number": null, "website": "http://www.twinsjazz.com", "open_street_map_id": 750467942, "name": "Twins Jazz", "product_categories": [], "address": 1385, "latitude": 38.9167447, "created_by": 1, "location_types": [2], "longitude": -77.0313007}}{"pk": 1386, "model": "vp.address", "fields": {"city": null, "display_address": null, "house_number": "1351", "state": null, "street": "U Street Northwest", "postal_code": null}}{"pk": 1386, "model": "vp.location", "fields": {"phone_number": null, "website": null, "open_street_map_id": 750467905, "name": "U Mini Mart", "product_categories": [3], "address": 1386, "latitude": 38.9173224, "created_by": 1, "location_types": [1], "longitude": -77.0311164}}{"pk": 1387, "model": "vp.address", "fields": {"city": null, "display_address": null, "house_number": "1416", "state": null, "street": "U Street Northwest", "postal_code": null}}{"pk": 1387, "model": "vp.location", "fields": {"phone_number": null, "website": null, "open_street_map_id": 750467871, "name": "Utopia Bar & Grill", "product_categories": [], "address": 1387, "latitude": 38.9168427, "created_by": 1, "location_types": [2], "longitude": -77.0326513}}{"pk": 1388, "model": "vp.address", "fields": {"city": null, "display_address": null, "house_number": "2121", "state": null, "street": "14th Street Northwest", "postal_code": null}}{"pk": 1388, "model": "vp.location", "fields": {"phone_number": null, "website": null, "open_street_map_id": 750467907, "name": "Eatonville", "product_categories": [], "address": 1388, "latitude": 38.9182991, "created_by": 1, "location_types": [3], "longitude": -77.0316837}}{"pk": 1389, "model": "vp.address", "fields": {"city": null, "display_address": null, "house_number": "1414", "state": null, "street": "14th Street Northwest", "postal_code": null}}{"pk": 1389, "model": "vp.location", "fields": {"phone_number": null, "website": null, "open_street_map_id": 741013077, "name": "Sav-on Liquors Inc.", "product_categories": [1], "address": 1389, "latitude": 38.9093834, "created_by": 1, "location_types": [1], "longitude": -77.0322136}}{"pk": 1390, "model": "vp.address", "fields": {"city": null, "display_address": null, "house_number": "2013", "state": null, "street": "14th Street Northwest", "postal_code": null}}{"pk": 1390, "model": "vp.location", "fields": {"phone_number": null, "website": null, "open_street_map_id": 750467934, "name": "Red Lounge", "product_categories": [], "address": 1390, "latitude": 38.9174716, "created_by": 1, "location_types": [2], "longitude": -77.0316138}}{"pk": 1391, "model": "vp.address", "fields": {"city": "Washington", "display_address": null, "house_number": "1359", "state": "DC", "street": "U Street Northwest", "postal_code": null}}{"pk": 1391, "model": "vp.location", "fields": {"phone_number": null, "website": null, "open_street_map_id": 750467856, "name": "Patty Boom Boom", "product_categories": [], "address": 1391, "latitude": 38.9171453, "created_by": 1, "location_types": [2], "longitude": -77.0314825}}{"pk": 1392, "model": "vp.address", "fields": {"city": "Washington", "display_address": null, "house_number": "2161", "state": null, "street": "P Street Northwest", "postal_code": null}}{"pk": 1392, "model": "vp.location", "fields": {"phone_number": null, "website": "http://www.fireplacedc.com", "open_street_map_id": 739339891, "name": "The Fireplace", "product_categories": [], "address": 1392, "latitude": 38.9098302, "created_by": 1, "location_types": [2], "longitude": -77.0485969}}{"pk": 1393, "model": "vp.address", "fields": {"city": "Washington", "display_address": null, "house_number": "2204", "state": null, "street": "14th Street Northwest", "postal_code": "20005"}}{"pk": 1393, "model": "vp.location", "fields": {"phone_number": null, "website": "http://www.movalounge.com", "open_street_map_id": 741013070, "name": "Number 9", "product_categories": [], "address": 1393, "latitude": 38.9098061, "created_by": 1, "location_types": [2], "longitude": -77.033364}}{"pk": 1394, "model": "vp.address", "fields": {"city": "Washington", "display_address": null, "house_number": "1412", "state": "DC", "street": "U Street Northwest", "postal_code": null}}{"pk": 1394, "model": "vp.location", "fields": {"phone_number": "+1 202 232 8424", "website": "http://dcnoodles.com/", "open_street_map_id": 750467914, "name": "DC Noodles", "product_categories": [], "address": 1394, "latitude": 38.9168377, "created_by": 1, "location_types": [3], "longitude": -77.0324687}}{"pk": 1395, "model": "vp.address", "fields": {"city": null, "display_address": null, "house_number": "1433", "state": null, "street": "P Street Northwest", "postal_code": null}}{"pk": 1395, "model": "vp.location", "fields": {"phone_number": null, "website": null, "open_street_map_id": 741013047, "name": "Stoney's", "product_categories": [], "address": 1395, "latitude": 38.9098039, "created_by": 1, "location_types": [2], "longitude": -77.0332331}}{"pk": 1396, "model": "vp.address", "fields": {"city": null, "display_address": null, "house_number": "1900", "state": null, "street": "Q Street Northwest", "postal_code": "20009"}}{"pk": 1396, "model": "vp.location", "fields": {"phone_number": "+12022655488", "website": null, "open_street_map_id": 807740925, "name": "Raku", "product_categories": [], "address": 1396, "latitude": 38.9109932, "created_by": 1, "location_types": [3], "longitude": -77.0436569}}{"pk": 1397, "model": "vp.address", "fields": {"city": null, "display_address": null, "house_number": "1413", "state": null, "street": "14th Street Northwest", "postal_code": null}}{"pk": 1397, "model": "vp.location", "fields": {"phone_number": null, "website": null, "open_street_map_id": 807596820, "name": "Yum's II Carry-Out", "product_categories": [], "address": 1397, "latitude": 38.9094242, "created_by": 1, "location_types": [3], "longitude": -77.0316976}}{"pk": 1398, "model": "vp.address", "fields": {"city": null, "display_address": null, "house_number": "1701", "state": null, "street": "Connecticut Avenue Northwest", "postal_code": null}}{"pk": 1398, "model": "vp.location", "fields": {"phone_number": null, "website": null, "open_street_map_id": 807741591, "name": "La Tomate", "product_categories": [], "address": 1398, "latitude": 38.9129983, "created_by": 1, "location_types": [3], "longitude": -77.0450968}}{"pk": 1399, "model": "vp.address", "fields": {"city": null, "display_address": null, "house_number": "1529", "state": null, "street": "Connecticut Avenue Northwest", "postal_code": null}}{"pk": 1399, "model": "vp.location", "fields": {"phone_number": null, "website": null, "open_street_map_id": 807743133, "name": "Connecticut Avenue Wine & Liquors", "product_categories": [1], "address": 1399, "latitude": 38.911004, "created_by": 1, "location_types": [1], "longitude": -77.0439709}}{"pk": 1400, "model": "vp.address", "fields": {"city": null, "display_address": null, "house_number": "2001", "state": null, "street": "S Street Northwest", "postal_code": null}}{"pk": 1400, "model": "vp.location", "fields": {"phone_number": null, "website": "http://glensgardenmarket.com/", "open_street_map_id": 807746578, "name": "Glen's Garden Market", "product_categories": [2], "address": 1400, "latitude": 38.9144038, "created_by": 1, "location_types": [1], "longitude": -77.045079}}{"pk": 1401, "model": "vp.address", "fields": {"city": null, "display_address": null, "house_number": "2020", "state": null, "street": "Florida Avenue Northwest", "postal_code": null}}{"pk": 1401, "model": "vp.location", "fields": {"phone_number": null, "website": null, "open_street_map_id": 807749907, "name": "Banana Leaves", "product_categories": [], "address": 1401, "latitude": 38.914513, "created_by": 1, "location_types": [3], "longitude": -77.0455926}}{"pk": 1402, "model": "vp.address", "fields": {"city": null, "display_address": null, "house_number": "1919", "state": null, "street": "Florida Avenue Northwest", "postal_code": null}}{"pk": 1402, "model": "vp.location", "fields": {"phone_number": null, "website": null, "open_street_map_id": 809401549, "name": "Martin's Wine & Spirits", "product_categories": [1], "address": 1402, "latitude": 38.9154512, "created_by": 1, "location_types": [1], "longitude": -77.0447749}}{"pk": 1403, "model": "vp.address", "fields": {"city": null, "display_address": null, "house_number": "1633", "state": null, "street": "17th Street Northwest", "postal_code": null}}{"pk": 1403, "model": "vp.location", "fields": {"phone_number": null, "website": null, "open_street_map_id": 810396645, "name": "La Frontera Cantina", "product_categories": [], "address": 1403, "latitude": 38.9122859, "created_by": 1, "location_types": [3], "longitude": -77.0382696}}{"pk": 1404, "model": "vp.address", "fields": {"city": null, "display_address": null, "house_number": "1617", "state": null, "street": "17th Street Northwest", "postal_code": null}}{"pk": 1404, "model": "vp.location", "fields": {"phone_number": null, "website": null, "open_street_map_id": 810396000, "name": "Prego Again", "product_categories": [], "address": 1404, "latitude": 38.911772, "created_by": 1, "location_types": [3], "longitude": -77.0382391}}{"pk": 1405, "model": "vp.address", "fields": {"city": null, "display_address": null, "house_number": "1537", "state": null, "street": "17th Street Northwest", "postal_code": null}}{"pk": 1405, "model": "vp.location", "fields": {"phone_number": null, "website": null, "open_street_map_id": 810399207, "name": "Trio", "product_categories": [], "address": 1405, "latitude": 38.9109803, "created_by": 1, "location_types": [2], "longitude": -77.0382643}}{"pk": 1406, "model": "vp.address", "fields": {"city": null, "display_address": null, "house_number": "1805", "state": null, "street": "18th Street Northwest", "postal_code": null}}{"pk": 1406, "model": "vp.location", "fields": {"phone_number": null, "website": null, "open_street_map_id": 810623012, "name": "Mandu", "product_categories": [], "address": 1406, "latitude": 38.9143602, "created_by": 1, "location_types": [3], "longitude": -77.0414886}}{"pk": 1407, "model": "vp.address", "fields": {"city": null, "display_address": null, "house_number": "1807", "state": null, "street": "18th Street Northwest", "postal_code": null}}{"pk": 1407, "model": "vp.location", "fields": {"phone_number": null, "website": null, "open_street_map_id": 810624736, "name": "Dupont Market", "product_categories": [2], "address": 1407, "latitude": 38.9144478, "created_by": 1, "location_types": [1], "longitude": -77.041488}}{"pk": 1408, "model": "vp.address", "fields": {"city": null, "display_address": null, "house_number": "1801", "state": null, "street": "18th Street Northwest", "postal_code": null}}{"pk": 1408, "model": "vp.location", "fields": {"phone_number": null, "website": "http://www.rosemarysthyme.com/", "open_street_map_id": 810624054, "name": "Rosemary's Thyme Bistro", "product_categories": [], "address": 1408, "latitude": 38.914275, "created_by": 1, "location_types": [3], "longitude": -77.041483}}{"pk": 1409, "model": "vp.address", "fields": {"city": null, "display_address": null, "house_number": "2100", "state": null, "street": "14th Street Northwest", "postal_code": null}}{"pk": 1409, "model": "vp.location", "fields": {"phone_number": null, "website": null, "open_street_map_id": 810758239, "name": "Diego", "product_categories": [], "address": 1409, "latitude": 38.9182589, "created_by": 1, "location_types": [3], "longitude": -77.0322542}}{"pk": 1410, "model": "vp.address", "fields": {"city": null, "display_address": null, "house_number": "1401", "state": null, "street": "T Street Northwest", "postal_code": "20009"}}{"pk": 1410, "model": "vp.location", "fields": {"phone_number": "202-827-4752", "website": "http://www.lupoverdedc.com", "open_street_map_id": 810758483, "name": "Lupo Verde", "product_categories": [], "address": 1410, "latitude": 38.9157109, "created_by": 1, "location_types": [3], "longitude": -77.0322869}}{"pk": 1411, "model": "vp.address", "fields": {"city": null, "display_address": null, "house_number": "1409", "state": null, "street": "T Street Northwest", "postal_code": null}}{"pk": 1411, "model": "vp.location", "fields": {"phone_number": null, "website": "taquerianacional.com/", "open_street_map_id": 810759832, "name": "Taqueria Nacional", "product_categories": [], "address": 1411, "latitude": 38.9157803, "created_by": 1, "location_types": [3], "longitude": -77.0325273}}{"pk": 1412, "model": "vp.address", "fields": {"city": null, "display_address": null, "house_number": "1601", "state": null, "street": "Connecticut Avenue Northwest", "postal_code": null}}{"pk": 1412, "model": "vp.location", "fields": {"phone_number": null, "website": null, "open_street_map_id": 1422544182, "name": "Circa at Dupont", "product_categories": [], "address": 1412, "latitude": 38.9112345, "created_by": 1, "location_types": [3], "longitude": -77.044088}}{"pk": 1413, "model": "vp.address", "fields": {"city": null, "display_address": null, "house_number": null, "state": null, "street": null, "postal_code": null}}{"pk": 1413, "model": "vp.location", "fields": {"phone_number": null, "website": null, "open_street_map_id": 872729293, "name": "Levelone", "product_categories": [], "address": 1413, "latitude": 38.912757, "created_by": 1, "location_types": [3], "longitude": -77.038211}}{"pk": 1414, "model": "vp.address", "fields": {"city": null, "display_address": null, "house_number": "1637", "state": null, "street": null, "postal_code": null}}{"pk": 1414, "model": "vp.location", "fields": {"phone_number": null, "website": null, "open_street_map_id": 872963963, "name": "Dupont Italian Kitchen", "product_categories": [], "address": 1414, "latitude": 38.912409, "created_by": 1, "location_types": [3], "longitude": -77.038252}}{"pk": 1415, "model": "vp.address", "fields": {"city": "Washington", "display_address": null, "house_number": "1541", "state": null, "street": "14th Street Northwest", "postal_code": "20009"}}{"pk": 1415, "model": "vp.location", "fields": {"phone_number": "202-232-0920", "website": "http://www.ettodc.com", "open_street_map_id": 2390679356, "name": "Etto", "product_categories": [], "address": 1415, "latitude": 38.9110049, "created_by": 1, "location_types": [3], "longitude": -77.0316696}}{"pk": 1416, "model": "vp.address", "fields": {"city": null, "display_address": null, "house_number": null, "state": null, "street": null, "postal_code": null}}{"pk": 1416, "model": "vp.location", "fields": {"phone_number": null, "website": "http://estadio-dc.com/", "open_street_map_id": 2286350110, "name": "Estadio", "product_categories": [], "address": 1416, "latitude": 38.91028, "created_by": 1, "location_types": [3], "longitude": -77.0321945}}{"pk": 1417, "model": "vp.address", "fields": {"city": null, "display_address": null, "house_number": null, "state": null, "street": null, "postal_code": null}}{"pk": 1417, "model": "vp.location", "fields": {"phone_number": null, "website": "http://lediplomatedc.com/", "open_street_map_id": 2286350111, "name": "Le Diplomate", "product_categories": [], "address": 1417, "latitude": 38.9112952, "created_by": 1, "location_types": [3], "longitude": -77.0316969}}{"pk": 1418, "model": "vp.address", "fields": {"city": null, "display_address": null, "house_number": null, "state": null, "street": null, "postal_code": null}}{"pk": 1418, "model": "vp.location", "fields": {"phone_number": null, "website": null, "open_street_map_id": 1911661703, "name": "Agora", "product_categories": [], "address": 1418, "latitude": 38.9106296, "created_by": 1, "location_types": [3], "longitude": -77.0382506}}{"pk": 1419, "model": "vp.address", "fields": {"city": null, "display_address": null, "house_number": null, "state": null, "street": null, "postal_code": null}}{"pk": 1419, "model": "vp.location", "fields": {"phone_number": null, "website": null, "open_street_map_id": 1911661705, "name": "Floriana", "product_categories": [], "address": 1419, "latitude": 38.9113371, "created_by": 1, "location_types": [3], "longitude": -77.0387334}}{"pk": 1420, "model": "vp.address", "fields": {"city": null, "display_address": null, "house_number": null, "state": null, "street": null, "postal_code": null}}{"pk": 1420, "model": "vp.location", "fields": {"phone_number": null, "website": null, "open_street_map_id": 1736494563, "name": "Desperados", "product_categories": [], "address": 1420, "latitude": 38.9168154, "created_by": 1, "location_types": [2], "longitude": -77.0310972}}{"pk": 1421, "model": "vp.address", "fields": {"city": null, "display_address": null, "house_number": null, "state": null, "street": null, "postal_code": null}}{"pk": 1421, "model": "vp.location", "fields": {"phone_number": null, "website": null, "open_street_map_id": 2226798348, "name": "MatchBox", "product_categories": [], "address": 1421, "latitude": 38.915751, "created_by": 1, "location_types": [3], "longitude": -77.0317}}{"pk": 1422, "model": "vp.address", "fields": {"city": "Washington", "display_address": null, "house_number": "1612", "state": null, "street": "14th Street Northwest", "postal_code": "20009"}}{"pk": 1422, "model": "vp.location", "fields": {"phone_number": null, "website": "http://www.pearldivedc.com/", "open_street_map_id": 2390679320, "name": "Pearl Dive Oyster Palace", "product_categories": [], "address": 1422, "latitude": 38.9116314, "created_by": 1, "location_types": [3], "longitude": -77.0322597}}{"pk": 1423, "model": "vp.address", "fields": {"city": "Washington", "display_address": null, "house_number": "1610", "state": null, "street": "14th Street Northwest", "postal_code": "20009"}}{"pk": 1423, "model": "vp.location", "fields": {"phone_number": null, "website": "http://ghibellina.com/", "open_street_map_id": 2390679346, "name": "Ghibellina", "product_categories": [], "address": 1423, "latitude": 38.9115521, "created_by": 1, "location_types": [3], "longitude": -77.0322758}}{"pk": 1424, "model": "vp.address", "fields": {"city": null, "display_address": null, "house_number": "1410", "state": null, "street": "14th Street Northwest", "postal_code": null}}{"pk": 1424, "model": "vp.location", "fields": {"phone_number": null, "website": null, "open_street_map_id": 2425532152, "name": "Black Whiskey", "product_categories": [], "address": 1424, "latitude": 38.9092801, "created_by": 1, "location_types": [2], "longitude": -77.0322123}}{"pk": 1425, "model": "vp.address", "fields": {"city": "Washington", "display_address": null, "house_number": "1818", "state": null, "street": "14th Street Northwest", "postal_code": "20009"}}{"pk": 1425, "model": "vp.location", "fields": {"phone_number": "(202) 265-8337", "website": "http://tedsbulletin.com/", "open_street_map_id": 2439191510, "name": "Ted's Bulletin", "product_categories": [], "address": 1425, "latitude": 38.9146964, "created_by": 1, "location_types": [3], "longitude": -77.0322271}}{"pk": 1426, "model": "vp.address", "fields": {"city": "Washington", "display_address": null, "house_number": "1622", "state": null, "street": "14th Street Northwest", "postal_code": "20009"}}{"pk": 1426, "model": "vp.location", "fields": {"phone_number": "+1202.588.5500", "website": "http://www.barcelonawinebar.com/washingtondc.htm", "open_street_map_id": 2508944448, "name": "Barcelona Wine Bar & Restaurant", "product_categories": [], "address": 1426, "latitude": 38.9121103, "created_by": 1, "location_types": [2], "longitude": -77.0321655}}{"pk": 1427, "model": "vp.address", "fields": {"city": "Washington", "display_address": null, "house_number": "1800", "state": null, "street": "14th Street Northwest", "postal_code": "20009"}}{"pk": 1427, "model": "vp.location", "fields": {"phone_number": "(202) 733-5131", "website": "http://www.doimoidc.com/", "open_street_map_id": 2453260753, "name": "Doi Moi", "product_categories": [], "address": 1427, "latitude": 38.9142634, "created_by": 1, "location_types": [3], "longitude": -77.0322156}}{"pk": 1428, "model": "vp.address", "fields": {"city": null, "display_address": null, "house_number": null, "state": null, "street": null, "postal_code": null}}{"pk": 1428, "model": "vp.location", "fields": {"phone_number": null, "website": null, "open_street_map_id": 2048917250, "name": "The Mediterranean Spot", "product_categories": [], "address": 1428, "latitude": 38.9171347, "created_by": 1, "location_types": [3], "longitude": -77.0347944}}{"pk": 1429, "model": "vp.address", "fields": {"city": null, "display_address": null, "house_number": null, "state": null, "street": null, "postal_code": null}}{"pk": 1429, "model": "vp.location", "fields": {"phone_number": null, "website": null, "open_street_map_id": 2819277380, "name": "Red Light", "product_categories": [], "address": 1429, "latitude": 38.912787, "created_by": 1, "location_types": [2], "longitude": -77.0321987}}{"pk": 1430, "model": "vp.address", "fields": {"city": "Washington", "display_address": null, "house_number": "2029", "state": null, "street": "P Street Northwest", "postal_code": "20036"}}{"pk": 1430, "model": "vp.location", "fields": {"phone_number": null, "website": null, "open_street_map_id": 2911411336, "name": "Thomas Foolery", "product_categories": [], "address": 1430, "latitude": 38.909793, "created_by": 1, "location_types": [2], "longitude": -77.0463016}}{"pk": 1431, "model": "vp.address", "fields": {"city": null, "display_address": null, "house_number": null, "state": null, "street": null, "postal_code": null}}{"pk": 1431, "model": "vp.location", "fields": {"phone_number": null, "website": "http://www.setteosteria.com/", "open_street_map_id": 2474206109, "name": "Sette Osteria", "product_categories": [], "address": 1431, "latitude": 38.9124693, "created_by": 1, "location_types": [3], "longitude": -77.0321847}}{"pk": 1432, "model": "vp.address", "fields": {"city": null, "display_address": null, "house_number": null, "state": null, "street": null, "postal_code": null}}{"pk": 1432, "model": "vp.location", "fields": {"phone_number": null, "website": null, "open_street_map_id": 2329222366, "name": "Benmoll Liquor", "product_categories": [1], "address": 1432, "latitude": 38.9168318, "created_by": 1, "location_types": [1], "longitude": -77.0387024}}{"pk": 1433, "model": "vp.address", "fields": {"city": null, "display_address": null, "house_number": null, "state": null, "street": null, "postal_code": null}}{"pk": 1433, "model": "vp.location", "fields": {"phone_number": null, "website": null, "open_street_map_id": 1911661706, "name": "Bar Dupont", "product_categories": [], "address": 1433, "latitude": 38.910368, "created_by": 1, "location_types": [2], "longitude": -77.0431485}}{"pk": 1434, "model": "vp.address", "fields": {"city": null, "display_address": null, "house_number": null, "state": null, "street": null, "postal_code": null}}{"pk": 1434, "model": "vp.location", "fields": {"phone_number": null, "website": null, "open_street_map_id": 1911661702, "name": "Cafe Dupont", "product_categories": [], "address": 1434, "latitude": 38.9106393, "created_by": 1, "location_types": [3], "longitude": -77.0431886}}{"pk": 1435, "model": "vp.address", "fields": {"city": null, "display_address": null, "house_number": null, "state": null, "street": null, "postal_code": null}}{"pk": 1435, "model": "vp.location", "fields": {"phone_number": null, "website": null, "open_street_map_id": 3355411712, "name": "7-Eleven", "product_categories": [3], "address": 1435, "latitude": 38.9184531, "created_by": 1, "location_types": [1], "longitude": -77.0447515}}{"pk": 1436, "model": "vp.address", "fields": {"city": null, "display_address": null, "house_number": null, "state": null, "street": null, "postal_code": null}}{"pk": 1436, "model": "vp.location", "fields": {"phone_number": null, "website": null, "open_street_map_id": 2965930333, "name": "Trader Joe's", "product_categories": [2], "address": 1436, "latitude": 38.916343, "created_by": 1, "location_types": [1], "longitude": -77.032187}}{"pk": 1437, "model": "vp.address", "fields": {"city": null, "display_address": null, "house_number": "1529", "state": null, "street": "14th Street Northwest", "postal_code": null}}{"pk": 1437, "model": "vp.location", "fields": {"phone_number": null, "website": null, "open_street_map_id": 3008740200, "name": "Drafting Table", "product_categories": [], "address": 1437, "latitude": 38.9107516, "created_by": 1, "location_types": [2], "longitude": -77.0316876}}{"pk": 1438, "model": "vp.address", "fields": {"city": "Washington", "display_address": null, "house_number": "2001", "state": "DC", "street": "14th Street Northwest", "postal_code": null}}{"pk": 1438, "model": "vp.location", "fields": {"phone_number": null, "website": null, "open_street_map_id": 3230876911, "name": "Lost Society", "product_categories": [], "address": 1438, "latitude": 38.9171507, "created_by": 1, "location_types": [2], "longitude": -77.0316686}}{"pk": 1439, "model": "vp.address", "fields": {"city": null, "display_address": null, "house_number": "1738", "state": null, "street": "Connecticut Avenue Northwest", "postal_code": "20009"}}{"pk": 1439, "model": "vp.location", "fields": {"phone_number": "202 234 6969", "website": "http://www.bistrotducoin.com", "open_street_map_id": 3261823930, "name": "Bistrot Du Coin", "product_categories": [], "address": 1439, "latitude": 38.9137931, "created_by": 1, "location_types": [3], "longitude": -77.046129}}{"pk": 1440, "model": "vp.address", "fields": {"city": null, "display_address": null, "house_number": "2029", "state": null, "street": "P Street Northwest", "postal_code": null}}{"pk": 1440, "model": "vp.location", "fields": {"phone_number": "202-331-3777", "website": "http://www.foodcornerkabob.com", "open_street_map_id": 3262684689, "name": "Kabob House", "product_categories": [], "address": 1440, "latitude": 38.9097871, "created_by": 1, "location_types": [3], "longitude": -77.0462207}}{"pk": 1441, "model": "vp.address", "fields": {"city": null, "display_address": null, "house_number": "1825", "state": null, "street": "18th Street Northwest", "postal_code": null}}{"pk": 1441, "model": "vp.location", "fields": {"phone_number": null, "website": null, "open_street_map_id": 3298614797, "name": "Bar Charley", "product_categories": [], "address": 1441, "latitude": 38.9150699, "created_by": 1, "location_types": [2], "longitude": -77.0414418}}{"pk": 1442, "model": "vp.address", "fields": {"city": null, "display_address": null, "house_number": null, "state": null, "street": null, "postal_code": null}}{"pk": 1442, "model": "vp.location", "fields": {"phone_number": null, "website": null, "open_street_map_id": 3015263247, "name": "Shophouse Kitchen", "product_categories": [], "address": 1442, "latitude": 38.9106204, "created_by": 1, "location_types": [3], "longitude": -77.0443003}}{"pk": 1443, "model": "vp.address", "fields": {"city": null, "display_address": null, "house_number": null, "state": null, "street": null, "postal_code": null}}{"pk": 1443, "model": "vp.location", "fields": {"phone_number": null, "website": null, "open_street_map_id": 3667337528, "name": "Mimosa", "product_categories": [], "address": 1443, "latitude": 38.9161558, "created_by": 1, "location_types": [3], "longitude": -77.0414726}}{"pk": 1444, "model": "vp.address", "fields": {"city": null, "display_address": null, "house_number": null, "state": null, "street": null, "postal_code": null}}{"pk": 1444, "model": "vp.location", "fields": {"phone_number": null, "website": null, "open_street_map_id": 3667359747, "name": "The Blaugard", "product_categories": [], "address": 1444, "latitude": 38.9173419, "created_by": 1, "location_types": [3], "longitude": -77.0413963}}