{"pk": 111, "model": "vp.address", "fields": {"city": null, "display_address": null, "house_number": "3934", "state": null, "street": "12th Street Northeast", "postal_code": null}}{"pk": 111, "model": "vp.location", "fields": {"phone_number": null, "website": null, "open_street_map_id": 737145398, "name": "Michigan Liquors", "product_categories": [1], "address": 111, "latitude": 38.9381201, "created_by": 1, "location_types": [1], "longitude": -76.9905207}}{"pk": 112, "model": "vp.address", "fields": {"city": null, "display_address": null, "house_number": "3903", "state": null, "street": "12th Street Northeast", "postal_code": null}}{"pk": 112, "model": "vp.location", "fields": {"phone_number": null, "website": null, "open_street_map_id": 737145423, "name": "Whelans Liquors", "product_categories": [1], "address": 112, "latitude": 38.9374946, "created_by": 1, "location_types": [1], "longitude": -76.9903032}}{"pk": 113, "model": "vp.address", "fields": {"city": null, "display_address": null, "house_number": "2310", "state": null, "street": "Rhode Island Avenue Northeast", "postal_code": null}}{"pk": 113, "model": "vp.location", "fields": {"phone_number": null, "website": null, "open_street_map_id": 737145414, "name": "National Wine & Liquors", "product_categories": [1], "address": 113, "latitude": 38.930842, "created_by": 1, "location_types": [1], "longitude": -76.9731118}}{"pk": 114, "model": "vp.address", "fields": {"city": null, "display_address": null, "house_number": "3301", "state": null, "street": "12th Street Northeast", "postal_code": null}}{"pk": 114, "model": "vp.location", "fields": {"phone_number": null, "website": null, "open_street_map_id": 737145409, "name": "Bobby's Q", "product_categories": [], "address": 114, "latitude": 38.9307342, "created_by": 1, "location_types": [3], "longitude": -76.9906812}}{"pk": 115, "model": "vp.address", "fields": {"city": null, "display_address": null, "house_number": "3908", "state": null, "street": "12th Street Northeast", "postal_code": null}}{"pk": 115, "model": "vp.location", "fields": {"phone_number": null, "website": null, "open_street_map_id": 737145415, "name": "San Antonio Bar & Grill III", "product_categories": [], "address": 115, "latitude": 38.9375716, "created_by": 1, "location_types": [2], "longitude": -76.9907583}}{"pk": 116, "model": "vp.address", "fields": {"city": "Washington", "display_address": null, "house_number": "3629", "state": "DC", "street": "12th Street Northeast", "postal_code": null}}{"pk": 116, "model": "vp.location", "fields": {"phone_number": null, "website": null, "open_street_map_id": 2785573204, "name": "Askale Cafe", "product_categories": [], "address": 116, "latitude": 38.9343542, "created_by": 1, "location_types": [3], "longitude": -76.9909823}}{"pk": 117, "model": "vp.address", "fields": {"city": null, "display_address": null, "house_number": null, "state": null, "street": null, "postal_code": null}}{"pk": 117, "model": "vp.location", "fields": {"phone_number": null, "website": null, "open_street_map_id": 2798930387, "name": "7 Eleven", "product_categories": [3], "address": 117, "latitude": 38.9447661, "created_by": 1, "location_types": [1], "longitude": -76.972554}}{"pk": 118, "model": "vp.address", "fields": {"city": null, "display_address": null, "house_number": null, "state": null, "street": null, "postal_code": null}}{"pk": 118, "model": "vp.location", "fields": {"phone_number": null, "website": null, "open_street_map_id": 452446228, "name": "Safeway", "product_categories": [2], "address": 118, "latitude": 39.0208174, "created_by": 1, "location_types": [1], "longitude": -76.9760134}}{"pk": 119, "model": "vp.address", "fields": {"city": "Silver Spring", "display_address": null, "house_number": null, "state": null, "street": "New Hampshire Avenue", "postal_code": null}}{"pk": 119, "model": "vp.location", "fields": {"phone_number": null, "website": null, "open_street_map_id": 761374174, "name": "7-11", "product_categories": [3], "address": 119, "latitude": 39.0232901, "created_by": 1, "location_types": [1], "longitude": -76.9777842}}{"pk": 120, "model": "vp.address", "fields": {"city": null, "display_address": null, "house_number": null, "state": null, "street": null, "postal_code": null}}{"pk": 120, "model": "vp.location", "fields": {"phone_number": null, "website": null, "open_street_map_id": 761374175, "name": "Urban BBQ", "product_categories": [], "address": 120, "latitude": 39.021969, "created_by": 1, "location_types": [3], "longitude": -76.9767468}}{"pk": 121, "model": "vp.address", "fields": {"city": null, "display_address": null, "house_number": null, "state": null, "street": null, "postal_code": null}}{"pk": 121, "model": "vp.location", "fields": {"phone_number": null, "website": null, "open_street_map_id": 3493939102, "name": null, "product_categories": [3], "address": 121, "latitude": 39.0389244, "created_by": 1, "location_types": [1], "longitude": -76.9908174}}{"pk": 122, "model": "vp.address", "fields": {"city": null, "display_address": null, "house_number": null, "state": null, "street": null, "postal_code": null}}{"pk": 122, "model": "vp.location", "fields": {"phone_number": null, "website": null, "open_street_map_id": 452446239, "name": "Giant", "product_categories": [2], "address": 122, "latitude": 39.0412196, "created_by": 1, "location_types": [1], "longitude": -76.9889051}}{"pk": 123, "model": "vp.address", "fields": {"city": null, "display_address": null, "house_number": null, "state": null, "street": null, "postal_code": null}}{"pk": 123, "model": "vp.location", "fields": {"phone_number": null, "website": null, "open_street_map_id": 452446241, "name": "Hunan Manor Chinese", "product_categories": [], "address": 123, "latitude": 39.0414462, "created_by": 1, "location_types": [3], "longitude": -76.9884073}}{"pk": 124, "model": "vp.address", "fields": {"city": null, "display_address": null, "house_number": null, "state": null, "street": null, "postal_code": null}}{"pk": 124, "model": "vp.location", "fields": {"phone_number": null, "website": null, "open_street_map_id": 452446243, "name": "Bombay Indian", "product_categories": [], "address": 124, "latitude": 39.0413596, "created_by": 1, "location_types": [3], "longitude": -76.9885876}}{"pk": 125, "model": "vp.address", "fields": {"city": null, "display_address": null, "house_number": null, "state": null, "street": null, "postal_code": null}}{"pk": 125, "model": "vp.location", "fields": {"phone_number": null, "website": null, "open_street_map_id": 2689395134, "name": "Subway Restaurant", "product_categories": [], "address": 125, "latitude": 39.0407103, "created_by": 1, "location_types": [3], "longitude": -76.9896506}}{"pk": 126, "model": "vp.address", "fields": {"city": null, "display_address": null, "house_number": null, "state": null, "street": null, "postal_code": null}}{"pk": 126, "model": "vp.location", "fields": {"phone_number": null, "website": null, "open_street_map_id": 3587072593, "name": "Sarku Japan Express", "product_categories": [], "address": 126, "latitude": 39.0405362, "created_by": 1, "location_types": [3], "longitude": -76.9895305}}{"pk": 127, "model": "vp.address", "fields": {"city": null, "display_address": null, "house_number": "3800", "state": null, "street": "Ten Oaks Road", "postal_code": "21737"}}{"pk": 127, "model": "vp.location", "fields": {"phone_number": null, "website": "www.bistroblancmd.com", "open_street_map_id": 1938927388, "name": "Bistro Blanc", "product_categories": [], "address": 127, "latitude": 39.266148, "created_by": 1, "location_types": [3], "longitude": -76.987117}}{"pk": 128, "model": "vp.address", "fields": {"city": null, "display_address": null, "house_number": null, "state": null, "street": null, "postal_code": null}}{"pk": 128, "model": "vp.location", "fields": {"phone_number": null, "website": null, "open_street_map_id": 1161605009, "name": "Applebees", "product_categories": [], "address": 128, "latitude": 39.5632697, "created_by": 1, "location_types": [3], "longitude": -76.9713385}}{"pk": 129, "model": "vp.address", "fields": {"city": null, "display_address": null, "house_number": null, "state": null, "street": null, "postal_code": null}}{"pk": 129, "model": "vp.location", "fields": {"phone_number": null, "website": null, "open_street_map_id": 1161605023, "name": "Popeye's", "product_categories": [], "address": 129, "latitude": 39.5646757, "created_by": 1, "location_types": [3], "longitude": -76.9735058}}{"pk": 130, "model": "vp.address", "fields": {"city": null, "display_address": null, "house_number": null, "state": null, "street": null, "postal_code": null}}{"pk": 130, "model": "vp.location", "fields": {"phone_number": null, "website": null, "open_street_map_id": 1161605026, "name": "Ruby Tuesday", "product_categories": [], "address": 130, "latitude": 39.565263, "created_by": 1, "location_types": [3], "longitude": -76.9740744}}{"pk": 131, "model": "vp.address", "fields": {"city": null, "display_address": null, "house_number": null, "state": null, "street": null, "postal_code": null}}{"pk": 131, "model": "vp.location", "fields": {"phone_number": null, "website": null, "open_street_map_id": 1161605030, "name": "Bob Evans", "product_categories": [], "address": 131, "latitude": 39.5656352, "created_by": 1, "location_types": [3], "longitude": -76.9747825}}{"pk": 132, "model": "vp.address", "fields": {"city": null, "display_address": null, "house_number": null, "state": null, "street": null, "postal_code": null}}{"pk": 132, "model": "vp.location", "fields": {"phone_number": null, "website": null, "open_street_map_id": 1161614984, "name": "Genova's Casual Italian Dining", "product_categories": [], "address": 132, "latitude": 39.5644772, "created_by": 1, "location_types": [3], "longitude": -76.9757368}}{"pk": 133, "model": "vp.address", "fields": {"city": null, "display_address": null, "house_number": null, "state": null, "street": null, "postal_code": null}}{"pk": 133, "model": "vp.location", "fields": {"phone_number": null, "website": null, "open_street_map_id": 1161614995, "name": "Five Guys Burgers & Fries", "product_categories": [], "address": 133, "latitude": 39.5642622, "created_by": 1, "location_types": [3], "longitude": -76.9758876}}{"pk": 134, "model": "vp.address", "fields": {"city": null, "display_address": null, "house_number": null, "state": null, "street": null, "postal_code": null}}{"pk": 134, "model": "vp.location", "fields": {"phone_number": null, "website": null, "open_street_map_id": 1312647971, "name": "Sheetz", "product_categories": [3], "address": 134, "latitude": 39.5659988, "created_by": 1, "location_types": [1], "longitude": -76.987213}}{"pk": 135, "model": "vp.address", "fields": {"city": null, "display_address": null, "house_number": null, "state": null, "street": null, "postal_code": null}}{"pk": 135, "model": "vp.location", "fields": {"phone_number": null, "website": null, "open_street_map_id": 1673538818, "name": "Shoppers Food Wharehouse", "product_categories": [2], "address": 135, "latitude": 39.5643734, "created_by": 1, "location_types": [1], "longitude": -76.9774721}}{"pk": 136, "model": "vp.address", "fields": {"city": null, "display_address": null, "house_number": null, "state": null, "street": null, "postal_code": null}}{"pk": 136, "model": "vp.location", "fields": {"phone_number": null, "website": null, "open_street_map_id": 1161644895, "name": "Olive Garden", "product_categories": [], "address": 136, "latitude": 39.5686935, "created_by": 1, "location_types": [3], "longitude": -76.9794423}}{"pk": 137, "model": "vp.address", "fields": {"city": null, "display_address": null, "house_number": null, "state": null, "street": null, "postal_code": null}}{"pk": 137, "model": "vp.location", "fields": {"phone_number": null, "website": null, "open_street_map_id": 3661070725, "name": "Maggie's", "product_categories": [], "address": 137, "latitude": 39.565075, "created_by": 1, "location_types": [3], "longitude": -76.988255}}{"pk": 138, "model": "vp.address", "fields": {"city": null, "display_address": "200 Clifton Blvd # H, Westminster, MD 21157-2941 (410) 857-0642", "house_number": null, "state": null, "street": null, "postal_code": null}}{"pk": 138, "model": "vp.location", "fields": {"phone_number": null, "website": null, "open_street_map_id": 1152793930, "name": "Panara Bread", "product_categories": [], "address": 138, "latitude": 39.5843513, "created_by": 1, "location_types": [3], "longitude": -76.9872909}}{"pk": 139, "model": "vp.address", "fields": {"city": null, "display_address": null, "house_number": null, "state": null, "street": null, "postal_code": null}}{"pk": 139, "model": "vp.location", "fields": {"phone_number": null, "website": null, "open_street_map_id": 1152798127, "name": "Denny's", "product_categories": [], "address": 139, "latitude": 39.5846748, "created_by": 1, "location_types": [3], "longitude": -76.989702}}{"pk": 140, "model": "vp.address", "fields": {"city": "Westminster", "display_address": null, "house_number": "400", "state": null, "street": "Englar Road", "postal_code": "21157"}}{"pk": 140, "model": "vp.location", "fields": {"phone_number": null, "website": null, "open_street_map_id": 1157822586, "name": "Buffalo Wild Wings Grill and Bar", "product_categories": [], "address": 140, "latitude": 39.586132, "created_by": 1, "location_types": [3], "longitude": -76.9880079}}{"pk": 141, "model": "vp.address", "fields": {"city": null, "display_address": null, "house_number": "140", "state": null, "street": "Englar Road", "postal_code": "21157"}}{"pk": 141, "model": "vp.location", "fields": {"phone_number": null, "website": null, "open_street_map_id": 1161361137, "name": "Food Lion", "product_categories": [2], "address": 141, "latitude": 39.5819071, "created_by": 1, "location_types": [1], "longitude": -76.990181}}{"pk": 142, "model": "vp.address", "fields": {"city": null, "display_address": null, "house_number": "8", "state": null, "street": "Westminster Shopping Center", "postal_code": "21157"}}{"pk": 142, "model": "vp.location", "fields": {"phone_number": null, "website": "http://www.carrollbiz.net/mediterraneo", "open_street_map_id": 1161361130, "name": "Mediterraneo", "product_categories": [], "address": 142, "latitude": 39.5813158, "created_by": 1, "location_types": [3], "longitude": -76.9896821}}{"pk": 143, "model": "vp.address", "fields": {"city": null, "display_address": null, "house_number": null, "state": null, "street": null, "postal_code": null}}{"pk": 143, "model": "vp.location", "fields": {"phone_number": null, "website": null, "open_street_map_id": 3159509100, "name": "Pizza Hut", "product_categories": [], "address": 143, "latitude": 39.5873937, "created_by": 1, "location_types": [3], "longitude": -76.9834647}}{"pk": 144, "model": "vp.address", "fields": {"city": null, "display_address": null, "house_number": null, "state": null, "street": null, "postal_code": null}}{"pk": 144, "model": "vp.location", "fields": {"phone_number": null, "website": null, "open_street_map_id": 1208061394, "name": "Red Lobster", "product_categories": [], "address": 144, "latitude": 39.8245788, "created_by": 1, "location_types": [3], "longitude": -76.9804501}}{"pk": 145, "model": "vp.address", "fields": {"city": null, "display_address": null, "house_number": null, "state": null, "street": null, "postal_code": null}}{"pk": 145, "model": "vp.location", "fields": {"phone_number": null, "website": null, "open_street_map_id": 1208066402, "name": "Arby's", "product_categories": [], "address": 145, "latitude": 39.8250444, "created_by": 1, "location_types": [3], "longitude": -76.974383}}{"pk": 146, "model": "vp.address", "fields": {"city": null, "display_address": null, "house_number": null, "state": null, "street": null, "postal_code": null}}{"pk": 146, "model": "vp.location", "fields": {"phone_number": null, "website": null, "open_street_map_id": 1208069014, "name": "Perkins", "product_categories": [], "address": 146, "latitude": 39.8257961, "created_by": 1, "location_types": [3], "longitude": -76.987971}}{"pk": 147, "model": "vp.address", "fields": {"city": "Hanover", "display_address": null, "house_number": "375", "state": null, "street": "Eisenhower Drive", "postal_code": "17331"}}{"pk": 147, "model": "vp.location", "fields": {"phone_number": "+1 717 5919464", "website": "http://www.aroogas.com/", "open_street_map_id": 2632880422, "name": "Arooga's Route 94", "product_categories": [], "address": 147, "latitude": 39.8242106, "created_by": 1, "location_types": [3], "longitude": -76.9833595}}{"pk": 148, "model": "vp.address", "fields": {"city": null, "display_address": null, "house_number": null, "state": null, "street": null, "postal_code": null}}{"pk": 148, "model": "vp.location", "fields": {"phone_number": null, "website": null, "open_street_map_id": 2390676323, "name": "7-Eleven Store", "product_categories": [3], "address": 148, "latitude": 38.8479815, "created_by": 1, "location_types": [1], "longitude": -76.9520864}}{"pk": 149, "model": "vp.address", "fields": {"city": null, "display_address": null, "house_number": "3302", "state": null, "street": "Branch Ave", "postal_code": "20748"}}{"pk": 149, "model": "vp.location", "fields": {"phone_number": null, "website": null, "open_street_map_id": 2390680613, "name": "Branch Avenue Liquors", "product_categories": [1], "address": 149, "latitude": 38.8484119, "created_by": 1, "location_types": [1], "longitude": -76.9527891}}{"pk": 150, "model": "vp.address", "fields": {"city": null, "display_address": null, "house_number": "3211", "state": null, "street": "Branch Ave.", "postal_code": "20748"}}{"pk": 150, "model": "vp.location", "fields": {"phone_number": null, "website": null, "open_street_map_id": 2390685751, "name": "Strick's Restaurant & Liquor", "product_categories": [1], "address": 150, "latitude": 38.84898, "created_by": 1, "location_types": [1], "longitude": -76.9541624}}{"pk": 151, "model": "vp.address", "fields": {"city": null, "display_address": null, "house_number": "2845", "state": null, "street": "Alabama Avenue Southeast", "postal_code": "20020"}}{"pk": 151, "model": "vp.location", "fields": {"phone_number": "2025757525", "website": "http://local.safeway.com/dc/washington-1445.html", "open_street_map_id": 735126570, "name": "Safeway 1445", "product_categories": [2], "address": 151, "latitude": 38.8589847, "created_by": 1, "location_types": [1], "longitude": -76.9666008}}{"pk": 152, "model": "vp.address", "fields": {"city": null, "display_address": null, "house_number": "3035", "state": null, "street": "Naylor Road Southeast", "postal_code": null}}{"pk": 152, "model": "vp.location", "fields": {"phone_number": null, "website": null, "open_street_map_id": 737080435, "name": "Raymond's Liquor", "product_categories": [1], "address": 152, "latitude": 38.853208, "created_by": 1, "location_types": [1], "longitude": -76.9648891}}{"pk": 153, "model": "vp.address", "fields": {"city": null, "display_address": null, "house_number": "3041", "state": null, "street": "Naylor Road Southeast", "postal_code": null}}{"pk": 153, "model": "vp.location", "fields": {"phone_number": null, "website": null, "open_street_map_id": 737080377, "name": "Southeast People's Market", "product_categories": [3], "address": 153, "latitude": 38.8532736, "created_by": 1, "location_types": [1], "longitude": -76.9644867}}{"pk": 154, "model": "vp.address", "fields": {"city": null, "display_address": null, "house_number": null, "state": null, "street": null, "postal_code": null}}{"pk": 154, "model": "vp.location", "fields": {"phone_number": null, "website": null, "open_street_map_id": 2390682403, "name": null, "product_categories": [1], "address": 154, "latitude": 38.8491075, "created_by": 1, "location_types": [1], "longitude": -76.9534006}}{"pk": 155, "model": "vp.address", "fields": {"city": null, "display_address": null, "house_number": null, "state": null, "street": null, "postal_code": null}}{"pk": 155, "model": "vp.location", "fields": {"phone_number": null, "website": null, "open_street_map_id": 2390685754, "name": null, "product_categories": [1], "address": 155, "latitude": 38.8490563, "created_by": 1, "location_types": [1], "longitude": -76.9551628}}{"pk": 156, "model": "vp.address", "fields": {"city": null, "display_address": null, "house_number": null, "state": null, "street": null, "postal_code": null}}{"pk": 156, "model": "vp.location", "fields": {"phone_number": null, "website": null, "open_street_map_id": 2391062979, "name": null, "product_categories": [1], "address": 156, "latitude": 38.8493063, "created_by": 1, "location_types": [1], "longitude": -76.954682}}{"pk": 157, "model": "vp.address", "fields": {"city": null, "display_address": null, "house_number": null, "state": null, "street": null, "postal_code": null}}{"pk": 157, "model": "vp.location", "fields": {"phone_number": null, "website": null, "open_street_map_id": 2393494820, "name": null, "product_categories": [1], "address": 157, "latitude": 38.8518258, "created_by": 1, "location_types": [1], "longitude": -76.9607244}}{"pk": 158, "model": "vp.address", "fields": {"city": null, "display_address": null, "house_number": "2846", "state": null, "street": "Alabama Avenue Southeast", "postal_code": null}}{"pk": 158, "model": "vp.location", "fields": {"phone_number": null, "website": null, "open_street_map_id": 737080364, "name": "Alabama Express", "product_categories": [1], "address": 158, "latitude": 38.8604328, "created_by": 1, "location_types": [1], "longitude": -76.9663752}}{"pk": 159, "model": "vp.address", "fields": {"city": null, "display_address": null, "house_number": "3235", "state": null, "street": "Pennsylvania Avenue SE", "postal_code": null}}{"pk": 159, "model": "vp.location", "fields": {"phone_number": null, "website": null, "open_street_map_id": 737080451, "name": "Patron Convenience Store", "product_categories": [3], "address": 159, "latitude": 38.8683778, "created_by": 1, "location_types": [1], "longitude": -76.9589495}}{"pk": 160, "model": "vp.address", "fields": {"city": null, "display_address": null, "house_number": null, "state": null, "street": null, "postal_code": null}}{"pk": 160, "model": "vp.location", "fields": {"phone_number": null, "website": null, "open_street_map_id": 737752337, "name": "OD Market", "product_categories": [3], "address": 160, "latitude": 38.8650686, "created_by": 1, "location_types": [1], "longitude": -76.9513471}}{"pk": 161, "model": "vp.address", "fields": {"city": null, "display_address": null, "house_number": "3833", "state": null, "street": "Pennsylvania Avenue SE", "postal_code": null}}{"pk": 161, "model": "vp.location", "fields": {"phone_number": null, "website": null, "open_street_map_id": 737080448, "name": "Village Pantry", "product_categories": [3], "address": 161, "latitude": 38.8651217, "created_by": 1, "location_types": [1], "longitude": -76.9514726}}{"pk": 162, "model": "vp.address", "fields": {"city": null, "display_address": null, "house_number": null, "state": null, "street": null, "postal_code": null}}{"pk": 162, "model": "vp.location", "fields": {"phone_number": null, "website": null, "open_street_map_id": 737824548, "name": "Discount Mart", "product_categories": [3], "address": 162, "latitude": 38.8603381, "created_by": 1, "location_types": [1], "longitude": -76.9666973}}{"pk": 163, "model": "vp.address", "fields": {"city": null, "display_address": null, "house_number": "2648", "state": null, "street": "Naylor Road Southeast", "postal_code": null}}{"pk": 163, "model": "vp.location", "fields": {"phone_number": null, "website": null, "open_street_map_id": 737080393, "name": "Skyland Liquors", "product_categories": [1], "address": 163, "latitude": 38.8615996, "created_by": 1, "location_types": [1], "longitude": -76.9681028}}