{"pk": 1556, "model": "vp.address", "fields": {"city": null, "display_address": null, "house_number": null, "state": null, "street": null, "postal_code": null}}{"pk": 1556, "model": "vp.location", "fields": {"phone_number": null, "website": null, "open_street_map_id": 741027357, "name": "China Town", "product_categories": [], "address": 1556, "latitude": 38.9312113, "created_by": 1, "location_types": [3], "longitude": -77.038687}}{"pk": 1557, "model": "vp.address", "fields": {"city": null, "display_address": null, "house_number": "3712", "state": null, "street": "14th Street Northwest", "postal_code": null}}{"pk": 1557, "model": "vp.location", "fields": {"phone_number": null, "website": null, "open_street_map_id": 744636049, "name": "Herman's Liquors", "product_categories": [1], "address": 1557, "latitude": 38.937594, "created_by": 1, "location_types": [1], "longitude": -77.033033}}{"pk": 1558, "model": "vp.address", "fields": {"city": "Washington", "display_address": "3345 14th St. NW Washington, DC 20010", "house_number": "3345", "state": "DC", "street": "14th Street Northwest", "postal_code": "20010"}}{"pk": 1558, "model": "vp.location", "fields": {"phone_number": null, "website": null, "open_street_map_id": 768138169, "name": "Alero", "product_categories": [], "address": 1558, "latitude": 38.9310291, "created_by": 1, "location_types": [3], "longitude": -77.032597}}{"pk": 1559, "model": "vp.address", "fields": {"city": null, "display_address": null, "house_number": "3636", "state": null, "street": "16th Street Northwest", "postal_code": null}}{"pk": 1559, "model": "vp.location", "fields": {"phone_number": null, "website": null, "open_street_map_id": 741027345, "name": "Sangria Cafe", "product_categories": [], "address": 1559, "latitude": 38.9364553, "created_by": 1, "location_types": [3], "longitude": -77.037253}}{"pk": 1560, "model": "vp.address", "fields": {"city": null, "display_address": null, "house_number": "3620", "state": null, "street": "14th Street Northwest", "postal_code": null}}{"pk": 1560, "model": "vp.location", "fields": {"phone_number": null, "website": null, "open_street_map_id": 738190935, "name": "New Dodge Market", "product_categories": [3], "address": 1560, "latitude": 38.9370059, "created_by": 1, "location_types": [1], "longitude": -77.033028}}{"pk": 1561, "model": "vp.address", "fields": {"city": null, "display_address": null, "house_number": "1660", "state": null, "street": "Lamont Street Northwest", "postal_code": null}}{"pk": 1561, "model": "vp.location", "fields": {"phone_number": null, "website": null, "open_street_map_id": 741027391, "name": "Don Juan Restaurant & Carryout", "product_categories": [], "address": 1561, "latitude": 38.9310957, "created_by": 1, "location_types": [3], "longitude": -77.038641}}{"pk": 1562, "model": "vp.address", "fields": {"city": null, "display_address": null, "house_number": "3203", "state": null, "street": "Mount Pleasant Street Northwest", "postal_code": null}}{"pk": 1562, "model": "vp.location", "fields": {"phone_number": null, "website": null, "open_street_map_id": 741027376, "name": "Marx Cafe American Bar", "product_categories": [], "address": 1562, "latitude": 38.9313608, "created_by": 1, "location_types": [2], "longitude": -77.0381602}}{"pk": 1563, "model": "vp.address", "fields": {"city": null, "display_address": null, "house_number": "3614", "state": null, "street": "14th Street Northwest", "postal_code": null}}{"pk": 1563, "model": "vp.location", "fields": {"phone_number": null, "website": null, "open_street_map_id": 738190966, "name": "La Cabana Restaurant", "product_categories": [], "address": 1563, "latitude": 38.936778, "created_by": 1, "location_types": [3], "longitude": -77.0330939}}{"pk": 1564, "model": "vp.address", "fields": {"city": null, "display_address": null, "house_number": "3178", "state": null, "street": "Mount Pleasant St NW", "postal_code": null}}{"pk": 1564, "model": "vp.location", "fields": {"phone_number": "2022653768", "website": null, "open_street_map_id": 735126507, "name": "Best World", "product_categories": [2], "address": 1564, "latitude": 38.9309584, "created_by": 1, "location_types": [1], "longitude": -77.0385457}}{"pk": 1565, "model": "vp.address", "fields": {"city": null, "display_address": null, "house_number": "3401", "state": null, "street": "14th Street Northwest", "postal_code": null}}{"pk": 1565, "model": "vp.location", "fields": {"phone_number": null, "website": null, "open_street_map_id": 738190952, "name": "CC's Liquor", "product_categories": [1], "address": 1565, "latitude": 38.9315764, "created_by": 1, "location_types": [1], "longitude": -77.0324723}}{"pk": 1566, "model": "vp.address", "fields": {"city": null, "display_address": null, "house_number": "3328", "state": null, "street": "14th Street Northwest", "postal_code": null}}{"pk": 1566, "model": "vp.location", "fields": {"phone_number": null, "website": null, "open_street_map_id": 738190918, "name": "Speedy Liquors", "product_categories": [1], "address": 1566, "latitude": 38.9310291, "created_by": 1, "location_types": [1], "longitude": -77.0329721}}{"pk": 1567, "model": "vp.address", "fields": {"city": null, "display_address": null, "house_number": "3125", "state": null, "street": "Mount Pleasant Street Northwest", "postal_code": null}}{"pk": 1567, "model": "vp.location", "fields": {"phone_number": null, "website": null, "open_street_map_id": 741027343, "name": "Raven Grill", "product_categories": [], "address": 1567, "latitude": 38.929396, "created_by": 1, "location_types": [3], "longitude": -77.0374038}}{"pk": 1568, "model": "vp.address", "fields": {"city": null, "display_address": null, "house_number": "1500", "state": null, "street": "Ogden Street Northwest", "postal_code": null}}{"pk": 1568, "model": "vp.location", "fields": {"phone_number": null, "website": null, "open_street_map_id": 738190951, "name": "Ogden Market", "product_categories": [3], "address": 1568, "latitude": 38.9353976, "created_by": 1, "location_types": [1], "longitude": -77.034944}}{"pk": 1569, "model": "vp.address", "fields": {"city": null, "display_address": null, "house_number": "3220", "state": null, "street": "17th Street Northwest", "postal_code": null}}{"pk": 1569, "model": "vp.location", "fields": {"phone_number": null, "website": null, "open_street_map_id": 741027379, "name": "Argyle Convenient Store", "product_categories": [3], "address": 1569, "latitude": 38.9321527, "created_by": 1, "location_types": [1], "longitude": -77.0391062}}{"pk": 1570, "model": "vp.address", "fields": {"city": null, "display_address": null, "house_number": "3217", "state": null, "street": "Mount Pleasant Street Northwest", "postal_code": null}}{"pk": 1570, "model": "vp.location", "fields": {"phone_number": null, "website": null, "open_street_map_id": 741027344, "name": "Corado's Guatemalan Restaurant", "product_categories": [], "address": 1570, "latitude": 38.9317508, "created_by": 1, "location_types": [3], "longitude": -77.0383467}}{"pk": 1571, "model": "vp.address", "fields": {"city": null, "display_address": null, "house_number": "3612", "state": null, "street": "14th Street Northwest", "postal_code": null}}{"pk": 1571, "model": "vp.location", "fields": {"phone_number": null, "website": null, "open_street_map_id": 738190928, "name": "El Amigo Restaurant", "product_categories": [], "address": 1571, "latitude": 38.9367229, "created_by": 1, "location_types": [3], "longitude": -77.0330937}}{"pk": 1572, "model": "vp.address", "fields": {"city": null, "display_address": null, "house_number": "3475", "state": null, "street": "14th Street Northwest", "postal_code": null}}{"pk": 1572, "model": "vp.location", "fields": {"phone_number": null, "website": null, "open_street_map_id": 738190961, "name": "El Atardecer", "product_categories": [], "address": 1572, "latitude": 38.9344148, "created_by": 1, "location_types": [3], "longitude": -77.0324359}}{"pk": 1573, "model": "vp.address", "fields": {"city": null, "display_address": null, "house_number": "3158", "state": null, "street": "Mount Pleasant Street Northwest", "postal_code": null}}{"pk": 1573, "model": "vp.location", "fields": {"phone_number": null, "website": null, "open_street_map_id": 741027374, "name": "International Progresso Market", "product_categories": [3], "address": 1573, "latitude": 38.9301976, "created_by": 1, "location_types": [1], "longitude": -77.0382703}}{"pk": 1574, "model": "vp.address", "fields": {"city": null, "display_address": null, "house_number": "3110", "state": null, "street": "Mount Pleasant Street Northwest", "postal_code": null}}{"pk": 1574, "model": "vp.location", "fields": {"phone_number": null, "website": null, "open_street_map_id": 741027359, "name": "Pupuseria San Miguel", "product_categories": [], "address": 1574, "latitude": 38.9291896, "created_by": 1, "location_types": [3], "longitude": -77.0377704}}{"pk": 1575, "model": "vp.address", "fields": {"city": null, "display_address": null, "house_number": "3636", "state": null, "street": "16th Street Northwest", "postal_code": null}}{"pk": 1575, "model": "vp.location", "fields": {"phone_number": null, "website": null, "open_street_map_id": 741027388, "name": "Woodner Grocery", "product_categories": [3], "address": 1575, "latitude": 38.936428, "created_by": 1, "location_types": [1], "longitude": -77.0372628}}{"pk": 1576, "model": "vp.address", "fields": {"city": null, "display_address": null, "house_number": "3209", "state": null, "street": "Mount Pleasant Street Northwest", "postal_code": null}}{"pk": 1576, "model": "vp.location", "fields": {"phone_number": null, "website": null, "open_street_map_id": 741027338, "name": "Don Jaime", "product_categories": [], "address": 1576, "latitude": 38.9314823, "created_by": 1, "location_types": [3], "longitude": -77.0382184}}{"pk": 1577, "model": "vp.address", "fields": {"city": null, "display_address": null, "house_number": "3243", "state": null, "street": "Mount Pleasant Street Northwest", "postal_code": null}}{"pk": 1577, "model": "vp.location", "fields": {"phone_number": null, "website": null, "open_street_map_id": 741027262, "name": "Samber Food Store", "product_categories": [3], "address": 1577, "latitude": 38.9320248, "created_by": 1, "location_types": [1], "longitude": -77.0384256}}{"pk": 1578, "model": "vp.address", "fields": {"city": null, "display_address": null, "house_number": "3155", "state": null, "street": "Mount Pleasant Street Northwest", "postal_code": null}}{"pk": 1578, "model": "vp.location", "fields": {"phone_number": null, "website": null, "open_street_map_id": 741027398, "name": "Tonic", "product_categories": [], "address": 1578, "latitude": 38.9305758, "created_by": 1, "location_types": [2], "longitude": -77.0376985}}{"pk": 1579, "model": "vp.address", "fields": {"city": "Washington", "display_address": null, "house_number": "3429", "state": "DC", "street": "14th Street Northwest", "postal_code": null}}{"pk": 1579, "model": "vp.location", "fields": {"phone_number": null, "website": null, "open_street_map_id": 738190932, "name": "Caroline", "product_categories": [], "address": 1579, "latitude": 38.9326057, "created_by": 1, "location_types": [3], "longitude": -77.0324315}}{"pk": 1580, "model": "vp.address", "fields": {"city": null, "display_address": null, "house_number": "3249", "state": null, "street": "Mount Pleasant Street Northwest", "postal_code": null}}{"pk": 1580, "model": "vp.location", "fields": {"phone_number": null, "website": null, "open_street_map_id": 741027342, "name": "Sportsman Wine and Liquors", "product_categories": [1], "address": 1580, "latitude": 38.9321991, "created_by": 1, "location_types": [1], "longitude": -77.0385405}}{"pk": 1581, "model": "vp.address", "fields": {"city": null, "display_address": null, "house_number": "3170", "state": null, "street": "Mount Pleasant Street Northwest", "postal_code": null}}{"pk": 1581, "model": "vp.location", "fields": {"phone_number": null, "website": null, "open_street_map_id": 741027395, "name": "Los Primos", "product_categories": [], "address": 1581, "latitude": 38.9305432, "created_by": 1, "location_types": [3], "longitude": -77.0382875}}{"pk": 1582, "model": "vp.address", "fields": {"city": null, "display_address": null, "house_number": "3320", "state": null, "street": "Brown Street Northwest", "postal_code": null}}{"pk": 1582, "model": "vp.location", "fields": {"phone_number": null, "website": null, "open_street_map_id": 741027352, "name": "Brown Street Market", "product_categories": [3], "address": 1582, "latitude": 38.9337445, "created_by": 1, "location_types": [1], "longitude": -77.0380971}}{"pk": 1583, "model": "vp.address", "fields": {"city": null, "display_address": null, "house_number": "3568", "state": null, "street": "14th Street Northwest", "postal_code": null}}{"pk": 1583, "model": "vp.location", "fields": {"phone_number": null, "website": null, "open_street_map_id": 738190917, "name": "La Molienda", "product_categories": [], "address": 1583, "latitude": 38.9362468, "created_by": 1, "location_types": [3], "longitude": -77.0330196}}{"pk": 1584, "model": "vp.address", "fields": {"city": null, "display_address": null, "house_number": "3548", "state": null, "street": "14th Street Northwest", "postal_code": null}}{"pk": 1584, "model": "vp.location", "fields": {"phone_number": null, "website": "http://www.thepinchdc.com", "open_street_map_id": 738190929, "name": "The Pinch", "product_categories": [], "address": 1584, "latitude": 38.9357605, "created_by": 1, "location_types": [3], "longitude": -77.0330433}}{"pk": 1585, "model": "vp.address", "fields": {"city": null, "display_address": null, "house_number": "3201", "state": null, "street": "Mount Pleasant Street Northwest", "postal_code": null}}{"pk": 1585, "model": "vp.location", "fields": {"phone_number": null, "website": null, "open_street_map_id": 741027384, "name": "Marleny's Restaurant & Carryout", "product_categories": [], "address": 1585, "latitude": 38.9312732, "created_by": 1, "location_types": [3], "longitude": -77.0381545}}{"pk": 1586, "model": "vp.address", "fields": {"city": null, "display_address": null, "house_number": "3566", "state": null, "street": "14th Street Northwest", "postal_code": null}}{"pk": 1586, "model": "vp.location", "fields": {"phone_number": null, "website": null, "open_street_map_id": 738190960, "name": "Restaurant Tropical", "product_categories": [], "address": 1586, "latitude": 38.9361834, "created_by": 1, "location_types": [3], "longitude": -77.0330193}}{"pk": 1587, "model": "vp.address", "fields": {"city": null, "display_address": null, "house_number": "3708", "state": null, "street": "14th Street Northwest", "postal_code": null}}{"pk": 1587, "model": "vp.location", "fields": {"phone_number": null, "website": null, "open_street_map_id": 744636055, "name": "Roberto's", "product_categories": [], "address": 1587, "latitude": 38.9375058, "created_by": 1, "location_types": [3], "longitude": -77.0330707}}{"pk": 1588, "model": "vp.address", "fields": {"city": null, "display_address": null, "house_number": "3904", "state": null, "street": "14th Street Northwest", "postal_code": null}}{"pk": 1588, "model": "vp.location", "fields": {"phone_number": null, "website": null, "open_street_map_id": 744636041, "name": "14th Mini-market", "product_categories": [3], "address": 1588, "latitude": 38.9388185, "created_by": 1, "location_types": [1], "longitude": -77.0330061}}{"pk": 1589, "model": "vp.address", "fields": {"city": null, "display_address": null, "house_number": "3103", "state": null, "street": "14th Street Northwest", "postal_code": null}}{"pk": 1589, "model": "vp.location", "fields": {"phone_number": null, "website": null, "open_street_map_id": 738190965, "name": "D'Vines", "product_categories": [1], "address": 1589, "latitude": 38.9292865, "created_by": 1, "location_types": [1], "longitude": -77.0324742}}{"pk": 1590, "model": "vp.address", "fields": {"city": null, "display_address": null, "house_number": "1345", "state": null, "street": "Park Road Northwest", "postal_code": null}}{"pk": 1590, "model": "vp.location", "fields": {"phone_number": "2027771077", "website": null, "open_street_map_id": 735126369, "name": "Giant", "product_categories": [2], "address": 1590, "latitude": 38.9308783, "created_by": 1, "location_types": [1], "longitude": -77.0316734}}{"pk": 1591, "model": "vp.address", "fields": {"city": null, "display_address": null, "house_number": "3365", "state": null, "street": "14th Street Northwest", "postal_code": null}}{"pk": 1591, "model": "vp.location", "fields": {"phone_number": null, "website": null, "open_street_map_id": 738190927, "name": "Ruby Tuesday", "product_categories": [], "address": 1591, "latitude": 38.9311825, "created_by": 1, "location_types": [3], "longitude": -77.0324544}}{"pk": 1592, "model": "vp.address", "fields": {"city": null, "display_address": null, "house_number": "3155", "state": null, "street": "Mount Pleasant Street Northwest", "postal_code": null}}{"pk": 1592, "model": "vp.location", "fields": {"phone_number": null, "website": null, "open_street_map_id": 741027350, "name": "Radius", "product_categories": [], "address": 1592, "latitude": 38.9305471, "created_by": 1, "location_types": [3], "longitude": -77.0376741}}{"pk": 1593, "model": "vp.address", "fields": {"city": null, "display_address": null, "house_number": "3515", "state": null, "street": "14th Street Northwest", "postal_code": null}}{"pk": 1593, "model": "vp.location", "fields": {"phone_number": null, "website": null, "open_street_map_id": 738190937, "name": "Cavalier Wine & Liquor", "product_categories": [1], "address": 1593, "latitude": 38.9352094, "created_by": 1, "location_types": [1], "longitude": -77.0324046}}{"pk": 1594, "model": "vp.address", "fields": {"city": null, "display_address": null, "house_number": "3910", "state": null, "street": "14th Street Northwest", "postal_code": null}}{"pk": 1594, "model": "vp.location", "fields": {"phone_number": null, "website": null, "open_street_map_id": 744636052, "name": "Sabor Latino Bar & Grill", "product_categories": [], "address": 1594, "latitude": 38.9389834, "created_by": 1, "location_types": [3], "longitude": -77.0329914}}{"pk": 1595, "model": "vp.address", "fields": {"city": null, "display_address": null, "house_number": "3700", "state": null, "street": "14th Street Northwest", "postal_code": null}}{"pk": 1595, "model": "vp.location", "fields": {"phone_number": null, "website": null, "open_street_map_id": 744636028, "name": "Carolina Palace", "product_categories": [], "address": 1595, "latitude": 38.9373122, "created_by": 1, "location_types": [3], "longitude": -77.0329416}}{"pk": 1596, "model": "vp.address", "fields": {"city": "Washington", "display_address": null, "house_number": "1390", "state": null, "street": "Kenyon Street Northwest", "postal_code": null}}{"pk": 1596, "model": "vp.location", "fields": {"phone_number": null, "website": null, "open_street_map_id": 738190914, "name": "The Heights", "product_categories": [], "address": 1596, "latitude": 38.929744, "created_by": 1, "location_types": [3], "longitude": -77.032376}}{"pk": 1597, "model": "vp.address", "fields": {"city": "Washington", "display_address": null, "house_number": "3460", "state": "DC", "street": "14th Street Northwest", "postal_code": "20010"}}{"pk": 1597, "model": "vp.location", "fields": {"phone_number": null, "website": null, "open_street_map_id": 738190919, "name": "Thip Khao", "product_categories": [], "address": 1597, "latitude": 38.9329066, "created_by": 1, "location_types": [3], "longitude": -77.0330142}}{"pk": 1598, "model": "vp.address", "fields": {"city": null, "display_address": null, "house_number": "3718", "state": null, "street": "14th Street Northwest", "postal_code": null}}{"pk": 1598, "model": "vp.location", "fields": {"phone_number": null, "website": null, "open_street_map_id": 744636032, "name": "Red Derby", "product_categories": [], "address": 1598, "latitude": 38.9377279, "created_by": 1, "location_types": [3], "longitude": -77.0330896}}{"pk": 1599, "model": "vp.address", "fields": {"city": null, "display_address": null, "house_number": null, "state": null, "street": null, "postal_code": null}}{"pk": 1599, "model": "vp.location", "fields": {"phone_number": null, "website": null, "open_street_map_id": 2271235162, "name": "Susana's Pupuseria", "product_categories": [], "address": 1599, "latitude": 38.938876, "created_by": 1, "location_types": [3], "longitude": -77.032477}}{"pk": 1600, "model": "vp.address", "fields": {"city": "Washington", "display_address": null, "house_number": "3105", "state": null, "street": "14th Street Northwest", "postal_code": null}}{"pk": 1600, "model": "vp.location", "fields": {"phone_number": null, "website": null, "open_street_map_id": 2299978589, "name": "Cava Mezze Grill", "product_categories": [], "address": 1600, "latitude": 38.929388, "created_by": 1, "location_types": [3], "longitude": -77.032487}}{"pk": 1601, "model": "vp.address", "fields": {"city": null, "display_address": null, "house_number": "1426", "state": null, "street": "Park Road Northwest", "postal_code": "20010"}}{"pk": 1601, "model": "vp.location", "fields": {"phone_number": null, "website": null, "open_street_map_id": 1671413948, "name": "Los Hermanos", "product_categories": [], "address": 1601, "latitude": 38.9304627, "created_by": 1, "location_types": [3], "longitude": -77.0337862}}{"pk": 1602, "model": "vp.address", "fields": {"city": null, "display_address": null, "house_number": null, "state": null, "street": null, "postal_code": null}}{"pk": 1602, "model": "vp.location", "fields": {"phone_number": null, "website": null, "open_street_map_id": 2127909646, "name": "Black Lion Market & Deli", "product_categories": [3], "address": 1602, "latitude": 38.9342455, "created_by": 1, "location_types": [1], "longitude": -77.0329597}}{"pk": 1603, "model": "vp.address", "fields": {"city": null, "display_address": null, "house_number": null, "state": null, "street": null, "postal_code": null}}{"pk": 1603, "model": "vp.location", "fields": {"phone_number": null, "website": null, "open_street_map_id": 2409083701, "name": "Mad Momos", "product_categories": [], "address": 1603, "latitude": 38.9364195, "created_by": 1, "location_types": [3], "longitude": -77.0324099}}{"pk": 1604, "model": "vp.address", "fields": {"city": null, "display_address": null, "house_number": null, "state": null, "street": null, "postal_code": null}}{"pk": 1604, "model": "vp.location", "fields": {"phone_number": null, "website": null, "open_street_map_id": 2607233243, "name": "Pollomio", "product_categories": [], "address": 1604, "latitude": 38.9372333, "created_by": 1, "location_types": [3], "longitude": -77.0324733}}{"pk": 1605, "model": "vp.address", "fields": {"city": null, "display_address": null, "house_number": null, "state": null, "street": null, "postal_code": null}}{"pk": 1605, "model": "vp.location", "fields": {"phone_number": null, "website": null, "open_street_map_id": 2485050040, "name": "Washington Pizza", "product_categories": [], "address": 1605, "latitude": 38.9388274, "created_by": 1, "location_types": [3], "longitude": -77.0323291}}{"pk": 1606, "model": "vp.address", "fields": {"city": null, "display_address": null, "house_number": null, "state": null, "street": null, "postal_code": null}}{"pk": 1606, "model": "vp.location", "fields": {"phone_number": null, "website": null, "open_street_map_id": 2485061917, "name": "Luen Yung Carryout", "product_categories": [], "address": 1606, "latitude": 38.938873, "created_by": 1, "location_types": [3], "longitude": -77.0329998}}{"pk": 1607, "model": "vp.address", "fields": {"city": null, "display_address": null, "house_number": null, "state": null, "street": null, "postal_code": null}}{"pk": 1607, "model": "vp.location", "fields": {"phone_number": null, "website": null, "open_street_map_id": 2485064898, "name": "Susana's Pupuseria", "product_categories": [], "address": 1607, "latitude": 38.937764, "created_by": 1, "location_types": [3], "longitude": -77.032508}}{"pk": 1608, "model": "vp.address", "fields": {"city": "Washington", "display_address": null, "house_number": "3463", "state": null, "street": "14th Street Northwest", "postal_code": "20010"}}{"pk": 1608, "model": "vp.location", "fields": {"phone_number": "(202) 276-7331", "website": "http://www.taqueriadf.com/", "open_street_map_id": 2498039171, "name": "Taqueria Districto Federal", "product_categories": [], "address": 1608, "latitude": 38.9340423, "created_by": 1, "location_types": [3], "longitude": -77.0325254}}{"pk": 1609, "model": "vp.address", "fields": {"city": "Washington", "display_address": null, "house_number": "3513", "state": null, "street": "14th Street Northwest", "postal_code": "20010"}}{"pk": 1609, "model": "vp.location", "fields": {"phone_number": "(202) 629-2839", "website": "http://www.phovietwdc.com/", "open_street_map_id": 2498039170, "name": "Pho Viet", "product_categories": [], "address": 1609, "latitude": 38.9350987, "created_by": 1, "location_types": [3], "longitude": -77.0325385}}{"pk": 1610, "model": "vp.address", "fields": {"city": "Washington", "display_address": null, "house_number": "3720", "state": "DC", "street": "14th Street Northwest", "postal_code": null}}{"pk": 1610, "model": "vp.location", "fields": {"phone_number": "(202) 723-0502", "website": "https://www.facebook.com/lymanstaverndc", "open_street_map_id": 2921259701, "name": "Lyman's", "product_categories": [], "address": 1610, "latitude": 38.93779, "created_by": 1, "location_types": [2], "longitude": -77.033012}}{"pk": 1611, "model": "vp.address", "fields": {"city": null, "display_address": null, "house_number": null, "state": null, "street": null, "postal_code": null}}{"pk": 1611, "model": "vp.location", "fields": {"phone_number": null, "website": null, "open_street_map_id": 3379659714, "name": "Zeba", "product_categories": [], "address": 1611, "latitude": 38.932289, "created_by": 1, "location_types": [2], "longitude": -77.0324571}}{"pk": 1612, "model": "vp.address", "fields": {"city": null, "display_address": null, "house_number": null, "state": null, "street": null, "postal_code": null}}{"pk": 1612, "model": "vp.location", "fields": {"phone_number": null, "website": null, "open_street_map_id": 2961630558, "name": "Panamericana", "product_categories": [2], "address": 1612, "latitude": 38.9357967, "created_by": 1, "location_types": [1], "longitude": -77.0329745}}