{"pk": 2095, "model": "vp.address", "fields": {"city": null, "display_address": null, "house_number": null, "state": null, "street": null, "postal_code": null}}{"pk": 2095, "model": "vp.location", "fields": {"phone_number": null, "website": null, "open_street_map_id": 480598905, "name": "Ertters Market", "product_categories": [1], "address": 2095, "latitude": 39.0003696, "created_by": 1, "location_types": [1], "longitude": -77.0173417}}{"pk": 2096, "model": "vp.address", "fields": {"city": null, "display_address": null, "house_number": null, "state": null, "street": null, "postal_code": null}}{"pk": 2096, "model": "vp.location", "fields": {"phone_number": null, "website": null, "open_street_map_id": 889247041, "name": "Mrs. K's Tollhouse", "product_categories": [], "address": 2096, "latitude": 39.0053627, "created_by": 1, "location_types": [3], "longitude": -77.0224075}}{"pk": 2097, "model": "vp.address", "fields": {"city": null, "display_address": null, "house_number": null, "state": null, "street": null, "postal_code": null}}{"pk": 2097, "model": "vp.location", "fields": {"phone_number": null, "website": null, "open_street_map_id": 805145718, "name": null, "product_categories": [3], "address": 2097, "latitude": 39.0164795, "created_by": 1, "location_types": [1], "longitude": -77.0188176}}{"pk": 2098, "model": "vp.address", "fields": {"city": null, "display_address": null, "house_number": null, "state": null, "street": null, "postal_code": null}}{"pk": 2098, "model": "vp.location", "fields": {"phone_number": null, "website": null, "open_street_map_id": 450122830, "name": "Santucci's Deli", "product_categories": [], "address": 2098, "latitude": 39.0204121, "created_by": 1, "location_types": [3], "longitude": -77.0118669}}{"pk": 2099, "model": "vp.address", "fields": {"city": null, "display_address": null, "house_number": null, "state": null, "street": null, "postal_code": null}}{"pk": 2099, "model": "vp.location", "fields": {"phone_number": null, "website": null, "open_street_map_id": 512957149, "name": "Papa John's", "product_categories": [], "address": 2099, "latitude": 39.0209625, "created_by": 1, "location_types": [3], "longitude": -77.0141753}}{"pk": 2100, "model": "vp.address", "fields": {"city": null, "display_address": null, "house_number": null, "state": null, "street": null, "postal_code": null}}{"pk": 2100, "model": "vp.location", "fields": {"phone_number": null, "website": null, "open_street_map_id": 512957152, "name": "Safeway", "product_categories": [2], "address": 2100, "latitude": 39.0206747, "created_by": 1, "location_types": [1], "longitude": -77.0152102}}{"pk": 2101, "model": "vp.address", "fields": {"city": null, "display_address": null, "house_number": null, "state": null, "street": null, "postal_code": null}}{"pk": 2101, "model": "vp.location", "fields": {"phone_number": null, "website": null, "open_street_map_id": 512954552, "name": "7-11", "product_categories": [3], "address": 2101, "latitude": 39.0202825, "created_by": 1, "location_types": [1], "longitude": -77.0132457}}{"pk": 2102, "model": "vp.address", "fields": {"city": null, "display_address": null, "house_number": null, "state": null, "street": null, "postal_code": null}}{"pk": 2102, "model": "vp.location", "fields": {"phone_number": null, "website": null, "open_street_map_id": 512955045, "name": "Jerry's Subs & Pizza", "product_categories": [], "address": 2102, "latitude": 39.0203966, "created_by": 1, "location_types": [3], "longitude": -77.0134264}}{"pk": 2103, "model": "vp.address", "fields": {"city": null, "display_address": null, "house_number": null, "state": null, "street": null, "postal_code": null}}{"pk": 2103, "model": "vp.location", "fields": {"phone_number": null, "website": null, "open_street_map_id": 512960539, "name": "The 4 Corners Pub", "product_categories": [], "address": 2103, "latitude": 39.0211099, "created_by": 1, "location_types": [2], "longitude": -77.0129367}}{"pk": 2104, "model": "vp.address", "fields": {"city": null, "display_address": null, "house_number": null, "state": null, "street": null, "postal_code": null}}{"pk": 2104, "model": "vp.location", "fields": {"phone_number": null, "website": null, "open_street_map_id": 635126440, "name": "CVS", "product_categories": [3], "address": 2104, "latitude": 39.0211542, "created_by": 1, "location_types": [1], "longitude": -77.0118258}}{"pk": 2105, "model": "vp.address", "fields": {"city": null, "display_address": null, "house_number": null, "state": null, "street": null, "postal_code": null}}{"pk": 2105, "model": "vp.location", "fields": {"phone_number": null, "website": null, "open_street_map_id": 657517577, "name": "NY Manhattan Deli", "product_categories": [], "address": 2105, "latitude": 39.0207341, "created_by": 1, "location_types": [3], "longitude": -77.0130967}}{"pk": 2106, "model": "vp.address", "fields": {"city": null, "display_address": null, "house_number": null, "state": null, "street": null, "postal_code": null}}{"pk": 2106, "model": "vp.location", "fields": {"phone_number": null, "website": null, "open_street_map_id": 635124527, "name": "Carvel", "product_categories": [], "address": 2106, "latitude": 39.020368, "created_by": 1, "location_types": [3], "longitude": -77.0133769}}{"pk": 2107, "model": "vp.address", "fields": {"city": null, "display_address": null, "house_number": "10110", "state": null, "street": "Colesville Rd", "postal_code": null}}{"pk": 2107, "model": "vp.location", "fields": {"phone_number": null, "website": null, "open_street_map_id": 635123266, "name": "Red Maple", "product_categories": [], "address": 2107, "latitude": 39.0208008, "created_by": 1, "location_types": [3], "longitude": -77.0126608}}{"pk": 2108, "model": "vp.address", "fields": {"city": null, "display_address": null, "house_number": null, "state": null, "street": null, "postal_code": null}}{"pk": 2108, "model": "vp.location", "fields": {"phone_number": null, "website": null, "open_street_map_id": 1436064013, "name": "Woodmoor Supermarket", "product_categories": [2], "address": 2108, "latitude": 39.0208047, "created_by": 1, "location_types": [1], "longitude": -77.0119663}}{"pk": 2109, "model": "vp.address", "fields": {"city": null, "display_address": null, "house_number": null, "state": null, "street": null, "postal_code": null}}{"pk": 2109, "model": "vp.location", "fields": {"phone_number": null, "website": null, "open_street_map_id": 1486494154, "name": "Chipotle", "product_categories": [], "address": 2109, "latitude": 39.0209733, "created_by": 1, "location_types": [3], "longitude": -77.0119536}}{"pk": 2110, "model": "vp.address", "fields": {"city": null, "display_address": null, "house_number": null, "state": null, "street": null, "postal_code": null}}{"pk": 2110, "model": "vp.location", "fields": {"phone_number": null, "website": null, "open_street_map_id": 1940151631, "name": "High's Diary Store", "product_categories": [3], "address": 2110, "latitude": 39.3029112, "created_by": 1, "location_types": [1], "longitude": -77.0198009}}{"pk": 2111, "model": "vp.address", "fields": {"city": null, "display_address": null, "house_number": "601", "state": null, "street": "Chesapeake Street Southeast", "postal_code": null}}{"pk": 2111, "model": "vp.location", "fields": {"phone_number": null, "website": null, "open_street_map_id": 737080388, "name": "Chesapeake Big Market", "product_categories": [2], "address": 2111, "latitude": 38.8289977, "created_by": 1, "location_types": [1], "longitude": -76.9982902}}{"pk": 2112, "model": "vp.address", "fields": {"city": null, "display_address": null, "house_number": "4686", "state": null, "street": "Martin Luther King Jr Avenue Southwest", "postal_code": null}}{"pk": 2112, "model": "vp.location", "fields": {"phone_number": null, "website": null, "open_street_map_id": 737080473, "name": "Fort Drum Market", "product_categories": [3], "address": 2112, "latitude": 38.8209485, "created_by": 1, "location_types": [1], "longitude": -77.0106684}}{"pk": 2113, "model": "vp.address", "fields": {"city": null, "display_address": null, "house_number": "4401", "state": null, "street": "South Capitol Street Southwest", "postal_code": null}}{"pk": 2113, "model": "vp.location", "fields": {"phone_number": null, "website": null, "open_street_map_id": 737080368, "name": "Elmira Grocery", "product_categories": [2], "address": 2113, "latitude": 38.8258876, "created_by": 1, "location_types": [1], "longitude": -77.0075506}}{"pk": 2114, "model": "vp.address", "fields": {"city": null, "display_address": null, "house_number": "4682", "state": null, "street": "Martin Luther King Jr Avenue SE", "postal_code": null}}{"pk": 2114, "model": "vp.location", "fields": {"phone_number": null, "website": null, "open_street_map_id": 737080347, "name": "Ocean View Liquors", "product_categories": [1], "address": 2114, "latitude": 38.8211203, "created_by": 1, "location_types": [1], "longitude": -77.0106495}}{"pk": 2115, "model": "vp.address", "fields": {"city": null, "display_address": null, "house_number": "4652", "state": null, "street": "Livingston Road Southeast", "postal_code": null}}{"pk": 2115, "model": "vp.location", "fields": {"phone_number": null, "website": null, "open_street_map_id": 737080453, "name": "South Capitol Liquors", "product_categories": [1], "address": 2115, "latitude": 38.8224852, "created_by": 1, "location_types": [1], "longitude": -77.0016046}}{"pk": 2116, "model": "vp.address", "fields": {"city": null, "display_address": null, "house_number": "3705", "state": null, "street": "Martin Luther King Jr Avenue SE", "postal_code": null}}{"pk": 2116, "model": "vp.location", "fields": {"phone_number": null, "website": null, "open_street_map_id": 737080404, "name": "Fort Carroll Market", "product_categories": [3], "address": 2116, "latitude": 38.8379427, "created_by": 1, "location_types": [1], "longitude": -77.0064389}}{"pk": 2117, "model": "vp.address", "fields": {"city": null, "display_address": null, "house_number": "3919", "state": null, "street": "South Capitol Street Southwest", "postal_code": null}}{"pk": 2117, "model": "vp.location", "fields": {"phone_number": null, "website": null, "open_street_map_id": 737080395, "name": "Mead's Wine & Liquor", "product_categories": [1], "address": 2117, "latitude": 38.8321045, "created_by": 1, "location_types": [1], "longitude": -77.0086433}}{"pk": 2118, "model": "vp.address", "fields": {"city": null, "display_address": null, "house_number": "3916", "state": null, "street": "South Capitol Street Southeast", "postal_code": null}}{"pk": 2118, "model": "vp.location", "fields": {"phone_number": null, "website": null, "open_street_map_id": 737080433, "name": "Spar Liquor", "product_categories": [1], "address": 2118, "latitude": 38.832247, "created_by": 1, "location_types": [1], "longitude": -77.0078654}}{"pk": 2119, "model": "vp.address", "fields": {"city": null, "display_address": null, "house_number": "4009", "state": null, "street": "South Capitol Street Southwest", "postal_code": null}}{"pk": 2119, "model": "vp.location", "fields": {"phone_number": null, "website": null, "open_street_map_id": 737080482, "name": "Al's Liquor", "product_categories": [1], "address": 2119, "latitude": 38.8310551, "created_by": 1, "location_types": [1], "longitude": -77.0079915}}{"pk": 2120, "model": "vp.address", "fields": {"city": null, "display_address": null, "house_number": "600", "state": null, "street": "Alabama Avenue Southeast", "postal_code": null}}{"pk": 2120, "model": "vp.location", "fields": {"phone_number": null, "website": null, "open_street_map_id": 737080436, "name": "Liff's Market", "product_categories": [3], "address": 2120, "latitude": 38.8433866, "created_by": 1, "location_types": [1], "longitude": -76.9975832}}{"pk": 2121, "model": "vp.address", "fields": {"city": null, "display_address": null, "house_number": "2931", "state": null, "street": "Martin Luther King Jr Avenue Southeast", "postal_code": null}}{"pk": 2121, "model": "vp.location", "fields": {"phone_number": null, "website": null, "open_street_map_id": 737080478, "name": "Mart Liquors", "product_categories": [1], "address": 2121, "latitude": 38.8452711, "created_by": 1, "location_types": [1], "longitude": -76.9976105}}{"pk": 2122, "model": "vp.address", "fields": {"city": null, "display_address": null, "house_number": "2922", "state": null, "street": "1", "postal_code": null}}{"pk": 2122, "model": "vp.location", "fields": {"phone_number": null, "website": null, "open_street_map_id": 737080489, "name": "Quality Convenience Store", "product_categories": [3], "address": 2122, "latitude": 38.8453213, "created_by": 1, "location_types": [1], "longitude": -76.9968781}}{"pk": 2123, "model": "vp.address", "fields": {"city": null, "display_address": null, "house_number": "3505", "state": null, "street": "Wheeler Road Southeast", "postal_code": null}}{"pk": 2123, "model": "vp.location", "fields": {"phone_number": null, "website": null, "open_street_map_id": 737080387, "name": "Holiday Liquors", "product_categories": [1], "address": 2123, "latitude": 38.8392868, "created_by": 1, "location_types": [1], "longitude": -76.9941226}}{"pk": 2124, "model": "vp.address", "fields": {"city": null, "display_address": null, "house_number": "3333", "state": null, "street": "Martin Luther King Jr Avenue Southeast", "postal_code": null}}{"pk": 2124, "model": "vp.location", "fields": {"phone_number": null, "website": null, "open_street_map_id": 737080419, "name": "K & H Grocery", "product_categories": [3], "address": 2124, "latitude": 38.8424062, "created_by": 1, "location_types": [1], "longitude": -77.0030806}}{"pk": 2125, "model": "vp.address", "fields": {"city": null, "display_address": null, "house_number": "2757", "state": null, "street": "Martin Luther King Jr Avenue Southeast", "postal_code": null}}{"pk": 2125, "model": "vp.location", "fields": {"phone_number": null, "website": null, "open_street_map_id": 737080480, "name": "King Avenue Liquors", "product_categories": [1], "address": 2125, "latitude": 38.8467632, "created_by": 1, "location_types": [1], "longitude": -76.9965606}}{"pk": 2126, "model": "vp.address", "fields": {"city": null, "display_address": null, "house_number": "2737", "state": null, "street": "Martin Luther King Jr Avenue Southeast", "postal_code": null}}{"pk": 2126, "model": "vp.location", "fields": {"phone_number": null, "website": null, "open_street_map_id": 737080432, "name": "Player's Lounge", "product_categories": [], "address": 2126, "latitude": 38.8471912, "created_by": 1, "location_types": [2], "longitude": -76.9963228}}{"pk": 2127, "model": "vp.address", "fields": {"city": null, "display_address": null, "house_number": "1824", "state": null, "street": "Half Street SW", "postal_code": null}}{"pk": 2127, "model": "vp.location", "fields": {"phone_number": null, "website": null, "open_street_map_id": 745922281, "name": "Ziegfield's", "product_categories": [], "address": 2127, "latitude": 38.8674739, "created_by": 1, "location_types": [3], "longitude": -77.0103055}}{"pk": 2128, "model": "vp.address", "fields": {"city": null, "display_address": null, "house_number": "2400", "state": null, "street": "Martin Luther King Jr Avenue Southeast", "postal_code": null}}{"pk": 2128, "model": "vp.location", "fields": {"phone_number": null, "website": null, "open_street_map_id": 737080398, "name": "King's Mini Market", "product_categories": [3], "address": 2128, "latitude": 38.8625781, "created_by": 1, "location_types": [1], "longitude": -76.9923097}}{"pk": 2129, "model": "vp.address", "fields": {"city": null, "display_address": null, "house_number": "2420", "state": null, "street": "Martin Luther King Jr Avenue Southeast", "postal_code": null}}{"pk": 2129, "model": "vp.location", "fields": {"phone_number": null, "website": null, "open_street_map_id": 737080417, "name": "Martin Luther King's Grocery", "product_categories": [2], "address": 2129, "latitude": 38.8621894, "created_by": 1, "location_types": [1], "longitude": -76.9927795}}{"pk": 2130, "model": "vp.address", "fields": {"city": null, "display_address": null, "house_number": "1301", "state": null, "street": "South Capitol Street Southwest", "postal_code": null}}{"pk": 2130, "model": "vp.location", "fields": {"phone_number": null, "website": null, "open_street_map_id": 745922219, "name": "Cap Liquors", "product_categories": [1], "address": 2130, "latitude": 38.8744849, "created_by": 1, "location_types": [1], "longitude": -77.0093785}}{"pk": 2131, "model": "vp.address", "fields": {"city": null, "display_address": null, "house_number": "1399", "state": null, "street": "Half Street Southwest", "postal_code": null}}{"pk": 2131, "model": "vp.location", "fields": {"phone_number": null, "website": null, "open_street_map_id": 745922235, "name": "Friendly Food Market", "product_categories": [3], "address": 2131, "latitude": 38.8731283, "created_by": 1, "location_types": [1], "longitude": -77.0108332}}{"pk": 2132, "model": "vp.address", "fields": {"city": null, "display_address": null, "house_number": "1000", "state": null, "street": "3rd Street Southeast", "postal_code": null}}{"pk": 2132, "model": "vp.location", "fields": {"phone_number": null, "website": null, "open_street_map_id": 737405083, "name": "Cornercopia", "product_categories": [3], "address": 2132, "latitude": 38.878275, "created_by": 1, "location_types": [1], "longitude": -77.0018106}}{"pk": 2133, "model": "vp.address", "fields": {"city": null, "display_address": null, "house_number": "1104", "state": null, "street": "8th Street Southeast", "postal_code": null}}{"pk": 2133, "model": "vp.location", "fields": {"phone_number": null, "website": null, "open_street_map_id": 737405190, "name": "Bachelor's Mill", "product_categories": [], "address": 2133, "latitude": 38.8771782, "created_by": 1, "location_types": [2], "longitude": -76.9947481}}{"pk": 2134, "model": "vp.address", "fields": {"city": null, "display_address": null, "house_number": "700", "state": null, "street": "L Street Southeast", "postal_code": null}}{"pk": 2134, "model": "vp.location", "fields": {"phone_number": null, "website": null, "open_street_map_id": 737404939, "name": "7th & L Street Market", "product_categories": [3], "address": 2134, "latitude": 38.8776882, "created_by": 1, "location_types": [1], "longitude": -76.9959531}}{"pk": 2135, "model": "vp.address", "fields": {"city": null, "display_address": null, "house_number": null, "state": null, "street": null, "postal_code": null}}{"pk": 2135, "model": "vp.location", "fields": {"phone_number": null, "website": null, "open_street_map_id": 990458415, "name": "Justin's Cafe", "product_categories": [], "address": 2135, "latitude": 38.8778669, "created_by": 1, "location_types": [3], "longitude": -77.0060801}}{"pk": 2136, "model": "vp.address", "fields": {"city": null, "display_address": null, "house_number": null, "state": null, "street": null, "postal_code": "20003"}}{"pk": 2136, "model": "vp.location", "fields": {"phone_number": null, "website": null, "open_street_map_id": 2275732098, "name": "Park Tavern", "product_categories": [], "address": 2136, "latitude": 38.87708, "created_by": 1, "location_types": [3], "longitude": -77.00309}}{"pk": 2137, "model": "vp.address", "fields": {"city": null, "display_address": null, "house_number": "909", "state": null, "street": "New Jersey Avenue Southeast", "postal_code": "20003"}}{"pk": 2137, "model": "vp.location", "fields": {"phone_number": null, "website": null, "open_street_map_id": 2036214108, "name": "Harry's Reserve", "product_categories": [1], "address": 2137, "latitude": 38.8791648, "created_by": 1, "location_types": [1], "longitude": -77.0054519}}{"pk": 2138, "model": "vp.address", "fields": {"city": null, "display_address": null, "house_number": null, "state": null, "street": null, "postal_code": null}}{"pk": 2138, "model": "vp.location", "fields": {"phone_number": null, "website": null, "open_street_map_id": 2278966525, "name": "Sizzling Express", "product_categories": [], "address": 2138, "latitude": 38.876627, "created_by": 1, "location_types": [3], "longitude": -77.000774}}{"pk": 2139, "model": "vp.address", "fields": {"city": null, "display_address": null, "house_number": null, "state": null, "street": null, "postal_code": null}}{"pk": 2139, "model": "vp.location", "fields": {"phone_number": null, "website": null, "open_street_map_id": 2291863402, "name": "Gordon Biersch", "product_categories": [], "address": 2139, "latitude": 38.876643, "created_by": 1, "location_types": [3], "longitude": -77.005572}}{"pk": 2140, "model": "vp.address", "fields": {"city": null, "display_address": null, "house_number": null, "state": null, "street": null, "postal_code": null}}{"pk": 2140, "model": "vp.location", "fields": {"phone_number": null, "website": null, "open_street_map_id": 2294829393, "name": "Five Guys", "product_categories": [], "address": 2140, "latitude": 38.87718, "created_by": 1, "location_types": [3], "longitude": -77.00371}}{"pk": 2141, "model": "vp.address", "fields": {"city": null, "display_address": null, "house_number": null, "state": null, "street": null, "postal_code": null}}{"pk": 2141, "model": "vp.location", "fields": {"phone_number": null, "website": null, "open_street_map_id": 2906355784, "name": "Nando's Peri-Peri", "product_categories": [], "address": 2141, "latitude": 38.8751946, "created_by": 1, "location_types": [3], "longitude": -77.0010843}}{"pk": 2142, "model": "vp.address", "fields": {"city": "Washington", "display_address": null, "house_number": "300", "state": "DC", "street": "Tingey Street Southeast", "postal_code": "20003"}}{"pk": 2142, "model": "vp.location", "fields": {"phone_number": "202.524.4862", "website": "Http://bluejacketdc.com", "open_street_map_id": 3092963829, "name": "Bluejacket Brewery", "product_categories": [], "address": 2142, "latitude": 38.8751884, "created_by": 1, "location_types": [2], "longitude": -77.0007678}}{"pk": 2143, "model": "vp.address", "fields": {"city": "Washington", "display_address": null, "house_number": "300", "state": "DC", "street": "Water Street Southeast", "postal_code": "20003"}}{"pk": 2143, "model": "vp.location", "fields": {"phone_number": null, "website": "http://www.krubadc.com/", "open_street_map_id": 2294844532, "name": "Kruba Thai & Sushi", "product_categories": [], "address": 2143, "latitude": 38.8739785, "created_by": 1, "location_types": [3], "longitude": -77.0017416}}{"pk": 2144, "model": "vp.address", "fields": {"city": "washington, DC", "display_address": null, "house_number": "301", "state": null, "street": "Tingey St SE", "postal_code": "20003"}}{"pk": 2144, "model": "vp.location", "fields": {"phone_number": null, "website": null, "open_street_map_id": 2637738372, "name": "Potbelly", "product_categories": [], "address": 2144, "latitude": 38.8747618, "created_by": 1, "location_types": [3], "longitude": -77.0017753}}