{"pk": 2207, "model": "vp.address", "fields": {"city": null, "display_address": null, "house_number": "522", "state": null, "street": "K Street Northeast", "postal_code": null}}{"pk": 2207, "model": "vp.location", "fields": {"phone_number": null, "website": null, "open_street_map_id": 737405042, "name": "ABC Grocery", "product_categories": [3], "address": 2207, "latitude": 38.9027699, "created_by": 1, "location_types": [1], "longitude": -76.9986388}}{"pk": 2208, "model": "vp.address", "fields": {"city": "Washington", "display_address": null, "house_number": "1015", "state": null, "street": "H Street Northeast", "postal_code": "20002"}}{"pk": 2208, "model": "vp.location", "fields": {"phone_number": "202 388 4020", "website": "theatlasroom.com", "open_street_map_id": 737404989, "name": "The Atlas Room", "product_categories": [], "address": 2208, "latitude": 38.8999962, "created_by": 1, "location_types": [3], "longitude": -76.9920594}}{"pk": 2209, "model": "vp.address", "fields": {"city": null, "display_address": null, "house_number": "501", "state": null, "street": "Morse Street Northeast", "postal_code": null}}{"pk": 2209, "model": "vp.location", "fields": {"phone_number": null, "website": null, "open_street_map_id": 737129936, "name": "Layla Lounge", "product_categories": [], "address": 2209, "latitude": 38.9071341, "created_by": 1, "location_types": [2], "longitude": -76.9989222}}{"pk": 2210, "model": "vp.address", "fields": {"city": null, "display_address": null, "house_number": "1300", "state": null, "street": "5th Street Northeast", "postal_code": null}}{"pk": 2210, "model": "vp.location", "fields": {"phone_number": null, "website": null, "open_street_map_id": 737130003, "name": "Northeast Liquors", "product_categories": [1], "address": 2210, "latitude": 38.908846, "created_by": 1, "location_types": [1], "longitude": -76.9982205}}{"pk": 2211, "model": "vp.address", "fields": {"city": "Washington", "display_address": null, "house_number": "1000", "state": "DC", "street": "Florida Avenue Northeast", "postal_code": "20002"}}{"pk": 2211, "model": "vp.location", "fields": {"phone_number": null, "website": null, "open_street_map_id": 737405119, "name": "J B Liquorette", "product_categories": [1], "address": 2211, "latitude": 38.9040492, "created_by": 1, "location_types": [1], "longitude": -76.9927857}}{"pk": 2212, "model": "vp.address", "fields": {"city": null, "display_address": null, "house_number": "415", "state": null, "street": "H Street Northeast", "postal_code": null}}{"pk": 2212, "model": "vp.location", "fields": {"phone_number": null, "website": null, "open_street_map_id": 737405241, "name": "Capitol Fine Wine & Spirits", "product_categories": [1], "address": 2212, "latitude": 38.900063, "created_by": 1, "location_types": [1], "longitude": -76.9999721}}{"pk": 2213, "model": "vp.address", "fields": {"city": null, "display_address": null, "house_number": "1006", "state": null, "street": "Florida Avenue Northeast", "postal_code": null}}{"pk": 2213, "model": "vp.location", "fields": {"phone_number": null, "website": null, "open_street_map_id": 737405074, "name": "Capitol Hill Premium Cigars & Tobacco", "product_categories": [3], "address": 2213, "latitude": 38.9040152, "created_by": 1, "location_types": [1], "longitude": -76.9924895}}{"pk": 2214, "model": "vp.address", "fields": {"city": null, "display_address": null, "house_number": "1104", "state": null, "street": "H Street Northeast", "postal_code": null}}{"pk": 2214, "model": "vp.location", "fields": {"phone_number": null, "website": null, "open_street_map_id": 737405181, "name": "Little Miss Whiskey's Golden Dollar", "product_categories": [], "address": 2214, "latitude": 38.9003831, "created_by": 1, "location_types": [2], "longitude": -76.9912126}}{"pk": 2215, "model": "vp.address", "fields": {"city": null, "display_address": null, "house_number": "15", "state": null, "street": "K Street Northeast", "postal_code": null}}{"pk": 2215, "model": "vp.location", "fields": {"phone_number": null, "website": null, "open_street_map_id": 737405000, "name": "Club Venus", "product_categories": [], "address": 2215, "latitude": 38.9022257, "created_by": 1, "location_types": [2], "longitude": -77.0078252}}{"pk": 2216, "model": "vp.address", "fields": {"city": null, "display_address": null, "house_number": "401", "state": null, "street": "H Street Northeast", "postal_code": null}}{"pk": 2216, "model": "vp.location", "fields": {"phone_number": null, "website": null, "open_street_map_id": 737405002, "name": "Ethiopic Restaurant", "product_categories": [], "address": 2216, "latitude": 38.9000242, "created_by": 1, "location_types": [3], "longitude": -77.0003904}}{"pk": 2217, "model": "vp.address", "fields": {"city": "Washington", "display_address": null, "house_number": "1101", "state": null, "street": "H Street Northeast", "postal_code": "20002"}}{"pk": 2217, "model": "vp.location", "fields": {"phone_number": "202 698 0555", "website": null, "open_street_map_id": 737405186, "name": "1101 Convenience Mart", "product_categories": [3], "address": 2217, "latitude": 38.8999933, "created_by": 1, "location_types": [1], "longitude": -76.9912642}}{"pk": 2218, "model": "vp.address", "fields": {"city": null, "display_address": null, "house_number": "517", "state": null, "street": "Morse Street Northeast", "postal_code": null}}{"pk": 2218, "model": "vp.location", "fields": {"phone_number": null, "website": null, "open_street_map_id": 737130021, "name": "A Litteri Inc", "product_categories": [3], "address": 2218, "latitude": 38.9070278, "created_by": 1, "location_types": [1], "longitude": -76.9984056}}{"pk": 2219, "model": "vp.address", "fields": {"city": null, "display_address": null, "house_number": "301", "state": null, "street": "Florida Avenue Northeast", "postal_code": null}}{"pk": 2219, "model": "vp.location", "fields": {"phone_number": null, "website": null, "open_street_map_id": 737130010, "name": "Coast In Liquors", "product_categories": [1], "address": 2219, "latitude": 38.9073757, "created_by": 1, "location_types": [1], "longitude": -77.0017884}}{"pk": 2220, "model": "vp.address", "fields": {"city": "Washington", "display_address": "1100 4th Street NE, Washington, D.C. 20002", "house_number": "1100", "state": "DC", "street": "4th Street Northeast", "postal_code": "20002"}}{"pk": 2220, "model": "vp.location", "fields": {"phone_number": null, "website": null, "open_street_map_id": 737405254, "name": "L Street Market", "product_categories": [2], "address": 2220, "latitude": 38.903882, "created_by": 1, "location_types": [1], "longitude": -77.0008251}}{"pk": 2221, "model": "vp.address", "fields": {"city": null, "display_address": null, "house_number": "1300", "state": null, "street": "North Capitol Street Northwest", "postal_code": null}}{"pk": 2221, "model": "vp.location", "fields": {"phone_number": null, "website": null, "open_street_map_id": 745905504, "name": "Big Ben Liquors", "product_categories": [1], "address": 2221, "latitude": 38.9074813, "created_by": 1, "location_types": [1], "longitude": -77.0093155}}{"pk": 2222, "model": "vp.address", "fields": {"city": null, "display_address": null, "house_number": "33", "state": null, "street": "New York Avenue Northeast", "postal_code": null}}{"pk": 2222, "model": "vp.location", "fields": {"phone_number": null, "website": null, "open_street_map_id": 745905558, "name": "Mirrors", "product_categories": [], "address": 2222, "latitude": 38.9075472, "created_by": 1, "location_types": [2], "longitude": -77.0076848}}{"pk": 2223, "model": "vp.address", "fields": {"city": null, "display_address": null, "house_number": null, "state": null, "street": null, "postal_code": null}}{"pk": 2223, "model": "vp.location", "fields": {"phone_number": null, "website": null, "open_street_map_id": 769077474, "name": "Five Guys Hamburgers and Fries", "product_categories": [], "address": 2223, "latitude": 38.9083207, "created_by": 1, "location_types": [3], "longitude": -77.0036965}}{"pk": 2224, "model": "vp.address", "fields": {"city": "Washington", "display_address": null, "house_number": "500", "state": null, "street": "5th Street Northeast", "postal_code": "20002"}}{"pk": 2224, "model": "vp.location", "fields": {"phone_number": null, "website": null, "open_street_map_id": 775946132, "name": "Michos Lebanese Grill", "product_categories": [], "address": 2224, "latitude": 38.900375, "created_by": 1, "location_types": [3], "longitude": -76.9993}}{"pk": 2225, "model": "vp.address", "fields": {"city": null, "display_address": null, "house_number": "1110", "state": null, "street": "H Street Northeast", "postal_code": null}}{"pk": 2225, "model": "vp.location", "fields": {"phone_number": null, "website": "http://www.copycatcompany.com/", "open_street_map_id": 772907089, "name": "Copycat Co.", "product_categories": [], "address": 2225, "latitude": 38.9003883, "created_by": 1, "location_types": [3], "longitude": -76.9910283}}{"pk": 2226, "model": "vp.address", "fields": {"city": "Washington", "display_address": null, "house_number": "707", "state": null, "street": "H Street Northeast", "postal_code": "20002"}}{"pk": 2226, "model": "vp.location", "fields": {"phone_number": null, "website": null, "open_street_map_id": 775912207, "name": "Addis Ethiopian Restaurant", "product_categories": [], "address": 2226, "latitude": 38.9000274, "created_by": 1, "location_types": [3], "longitude": -76.9957799}}{"pk": 2227, "model": "vp.address", "fields": {"city": "Washington", "display_address": null, "house_number": "709", "state": null, "street": "H Street Northeast", "postal_code": "20002"}}{"pk": 2227, "model": "vp.location", "fields": {"phone_number": "202 290 2707", "website": "www.poboyjim.com", "open_street_map_id": 775912206, "name": "Po Boy Jim Restaurant", "product_categories": [], "address": 2227, "latitude": 38.9000274, "created_by": 1, "location_types": [3], "longitude": -76.9957101}}{"pk": 2228, "model": "vp.address", "fields": {"city": null, "display_address": null, "house_number": "421", "state": null, "street": "H Street Northeast", "postal_code": null}}{"pk": 2228, "model": "vp.location", "fields": {"phone_number": null, "website": "http://www.thebigboarddc.com/6318", "open_street_map_id": 772330046, "name": "The Big Board", "product_categories": [], "address": 2228, "latitude": 38.9000577, "created_by": 1, "location_types": [2], "longitude": -76.9997261}}{"pk": 2229, "model": "vp.address", "fields": {"city": null, "display_address": null, "house_number": "1305", "state": null, "street": "2nd Street Northeast", "postal_code": null}}{"pk": 2229, "model": "vp.location", "fields": {"phone_number": null, "website": null, "open_street_map_id": 810582021, "name": "Au Bon Pain", "product_categories": [], "address": 2229, "latitude": 38.9076064, "created_by": 1, "location_types": [3], "longitude": -77.0032863}}{"pk": 2230, "model": "vp.address", "fields": {"city": null, "display_address": null, "house_number": null, "state": null, "street": null, "postal_code": null}}{"pk": 2230, "model": "vp.location", "fields": {"phone_number": null, "website": null, "open_street_map_id": 939451151, "name": "Rathskellar", "product_categories": [], "address": 2230, "latitude": 38.9065702, "created_by": 1, "location_types": [2], "longitude": -76.9935925}}{"pk": 2231, "model": "vp.address", "fields": {"city": null, "display_address": null, "house_number": null, "state": null, "street": null, "postal_code": null}}{"pk": 2231, "model": "vp.location", "fields": {"phone_number": null, "website": null, "open_street_map_id": 939458547, "name": "The Bistro", "product_categories": [], "address": 2231, "latitude": 38.9075094, "created_by": 1, "location_types": [3], "longitude": -76.9952232}}{"pk": 2232, "model": "vp.address", "fields": {"city": null, "display_address": null, "house_number": "1225", "state": null, "street": "1st St NE", "postal_code": null}}{"pk": 2232, "model": "vp.location", "fields": {"phone_number": null, "website": null, "open_street_map_id": 1828168444, "name": "Todd Gray's Watershed", "product_categories": [], "address": 2232, "latitude": 38.9060697, "created_by": 1, "location_types": [3], "longitude": -77.0056636}}{"pk": 2233, "model": "vp.address", "fields": {"city": null, "display_address": null, "house_number": null, "state": null, "street": null, "postal_code": null}}{"pk": 2233, "model": "vp.location", "fields": {"phone_number": null, "website": null, "open_street_map_id": 904053647, "name": "Potbelly's", "product_categories": [], "address": 2233, "latitude": 38.9062987, "created_by": 1, "location_types": [3], "longitude": -77.0056702}}{"pk": 2234, "model": "vp.address", "fields": {"city": null, "display_address": null, "house_number": "21", "state": null, "street": "First Street & M Street", "postal_code": null}}{"pk": 2234, "model": "vp.location", "fields": {"phone_number": null, "website": null, "open_street_map_id": 1217748978, "name": "Harris Teeter", "product_categories": [2], "address": 2234, "latitude": 38.9058705, "created_by": 1, "location_types": [1], "longitude": -77.0056576}}{"pk": 2235, "model": "vp.address", "fields": {"city": null, "display_address": null, "house_number": "1315", "state": null, "street": "2nd Street Northeast", "postal_code": null}}{"pk": 2235, "model": "vp.location", "fields": {"phone_number": null, "website": null, "open_street_map_id": 1114994714, "name": "7 Eleven", "product_categories": [3], "address": 2235, "latitude": 38.9077511, "created_by": 1, "location_types": [1], "longitude": -77.0032641}}{"pk": 2236, "model": "vp.address", "fields": {"city": null, "display_address": null, "house_number": "1275", "state": null, "street": "1st Street Northeast", "postal_code": null}}{"pk": 2236, "model": "vp.location", "fields": {"phone_number": "202-289-6556", "website": null, "open_street_map_id": 1652367001, "name": "Roti Mediterranean Grill", "product_categories": [], "address": 2236, "latitude": 38.9068852, "created_by": 1, "location_types": [3], "longitude": -77.0056736}}{"pk": 2237, "model": "vp.address", "fields": {"city": "Washington", "display_address": null, "house_number": "404", "state": null, "street": "H Street Northeast", "postal_code": "20002"}}{"pk": 2237, "model": "vp.location", "fields": {"phone_number": null, "website": null, "open_street_map_id": 3137363008, "name": "Khepras Juice Bar and Raw Food", "product_categories": [], "address": 2237, "latitude": 38.900351, "created_by": 1, "location_types": [3], "longitude": -77.0002169}}{"pk": 2238, "model": "vp.address", "fields": {"city": "Washington", "display_address": null, "house_number": "644", "state": null, "street": "H Street Northeast", "postal_code": "20002"}}{"pk": 2238, "model": "vp.location", "fields": {"phone_number": null, "website": null, "open_street_map_id": 3137230329, "name": "Hikari Sushi & Sake Bar", "product_categories": [], "address": 2238, "latitude": 38.900385, "created_by": 1, "location_types": [3], "longitude": -76.996654}}{"pk": 2239, "model": "vp.address", "fields": {"city": "Washington", "display_address": null, "house_number": "502", "state": null, "street": "H Street Northeast", "postal_code": "20002"}}{"pk": 2239, "model": "vp.location", "fields": {"phone_number": null, "website": null, "open_street_map_id": 3137216529, "name": "Le Grenier", "product_categories": [], "address": 2239, "latitude": 38.900417, "created_by": 1, "location_types": [3], "longitude": -76.999233}}{"pk": 2240, "model": "vp.address", "fields": {"city": "Washington", "display_address": null, "house_number": "957", "state": null, "street": "H Street Northeast", "postal_code": "20002"}}{"pk": 2240, "model": "vp.location", "fields": {"phone_number": null, "website": null, "open_street_map_id": 3137364196, "name": "7-Eleven", "product_categories": [3], "address": 2240, "latitude": 38.8998278, "created_by": 1, "location_types": [1], "longitude": -76.9932324}}{"pk": 2241, "model": "vp.address", "fields": {"city": "Washington", "display_address": null, "house_number": "400", "state": null, "street": "H Street Northeast", "postal_code": "20002"}}{"pk": 2241, "model": "vp.location", "fields": {"phone_number": null, "website": null, "open_street_map_id": 3137363007, "name": "Driftwood Kitchen", "product_categories": [], "address": 2241, "latitude": 38.9003609, "created_by": 1, "location_types": [3], "longitude": -77.000383}}{"pk": 2242, "model": "vp.address", "fields": {"city": "Washington", "display_address": null, "house_number": "243", "state": "DC", "street": "K Street Northeast", "postal_code": "20002"}}{"pk": 2242, "model": "vp.location", "fields": {"phone_number": null, "website": "https://twitter.com/indigowdc", "open_street_map_id": 3197373642, "name": "Indigo", "product_categories": [], "address": 2242, "latitude": 38.9022941, "created_by": 1, "location_types": [3], "longitude": -77.0022986}}{"pk": 2243, "model": "vp.address", "fields": {"city": null, "display_address": null, "house_number": "50", "state": null, "street": "Florida Avenue Northeast", "postal_code": null}}{"pk": 2243, "model": "vp.location", "fields": {"phone_number": null, "website": null, "open_street_map_id": 737130012, "name": "Keg City", "product_categories": [1], "address": 2243, "latitude": 38.9105335, "created_by": 1, "location_types": [1], "longitude": -77.0072189}}{"pk": 2244, "model": "vp.address", "fields": {"city": null, "display_address": null, "house_number": "1633", "state": null, "street": "North Capitol Street Northeast", "postal_code": null}}{"pk": 2244, "model": "vp.location", "fields": {"phone_number": null, "website": null, "open_street_map_id": 737129870, "name": "Super Liquors", "product_categories": [1], "address": 2244, "latitude": 38.9124488, "created_by": 1, "location_types": [1], "longitude": -77.0087571}}{"pk": 2245, "model": "vp.address", "fields": {"city": null, "display_address": null, "house_number": "1822", "state": null, "street": "North Capitol Street Northwest", "postal_code": null}}{"pk": 2245, "model": "vp.location", "fields": {"phone_number": null, "website": null, "open_street_map_id": 740376914, "name": "Seaton Market", "product_categories": [3], "address": 2245, "latitude": 38.914692, "created_by": 1, "location_types": [1], "longitude": -77.0094258}}{"pk": 2246, "model": "vp.address", "fields": {"city": null, "display_address": null, "house_number": "1542", "state": null, "street": "North Capitol Street Northwest", "postal_code": null}}{"pk": 2246, "model": "vp.location", "fields": {"phone_number": null, "website": null, "open_street_map_id": 745905475, "name": "Walter Johnson's Liquor Store", "product_categories": [1], "address": 2246, "latitude": 38.9106982, "created_by": 1, "location_types": [1], "longitude": -77.0094148}}{"pk": 2247, "model": "vp.address", "fields": {"city": null, "display_address": null, "house_number": "175", "state": null, "street": "R Street Northeast", "postal_code": null}}{"pk": 2247, "model": "vp.location", "fields": {"phone_number": null, "website": null, "open_street_map_id": 737129890, "name": "Speakeasy Spirits", "product_categories": [1], "address": 2247, "latitude": 38.9123022, "created_by": 1, "location_types": [1], "longitude": -77.0042952}}{"pk": 2248, "model": "vp.address", "fields": {"city": null, "display_address": null, "house_number": "1325", "state": null, "street": "5th Street Northeast", "postal_code": null}}{"pk": 2248, "model": "vp.location", "fields": {"phone_number": null, "website": null, "open_street_map_id": 737130011, "name": "Roanoke Valley DC", "product_categories": [1], "address": 2248, "latitude": 38.9090211, "created_by": 1, "location_types": [1], "longitude": -76.997075}}{"pk": 2249, "model": "vp.address", "fields": {"city": null, "display_address": null, "house_number": "175", "state": null, "street": "R Street Northeast", "postal_code": null}}{"pk": 2249, "model": "vp.location", "fields": {"phone_number": null, "website": null, "open_street_map_id": 737129965, "name": "Ansonia Wines", "product_categories": [1], "address": 2249, "latitude": 38.9124874, "created_by": 1, "location_types": [1], "longitude": -77.0043428}}{"pk": 2250, "model": "vp.address", "fields": {"city": null, "display_address": null, "house_number": "321", "state": null, "street": "T Street Northeast", "postal_code": null}}{"pk": 2250, "model": "vp.location", "fields": {"phone_number": null, "website": null, "open_street_map_id": 737129900, "name": "McKinley Market", "product_categories": [3], "address": 2250, "latitude": 38.9153018, "created_by": 1, "location_types": [1], "longitude": -77.000995}}{"pk": 2251, "model": "vp.address", "fields": {"city": null, "display_address": null, "house_number": "411", "state": null, "street": "New York Avenue Northeast", "postal_code": null}}{"pk": 2251, "model": "vp.location", "fields": {"phone_number": null, "website": null, "open_street_map_id": 737129878, "name": "Warehouse/Loft", "product_categories": [1], "address": 2251, "latitude": 38.9110213, "created_by": 1, "location_types": [1], "longitude": -76.9974962}}{"pk": 2252, "model": "vp.address", "fields": {"city": null, "display_address": null, "house_number": "301", "state": null, "street": "New York Avenue Northeast", "postal_code": null}}{"pk": 2252, "model": "vp.location", "fields": {"phone_number": null, "website": null, "open_street_map_id": 737129845, "name": "Costa Rica Trading", "product_categories": [1], "address": 2252, "latitude": 38.9101828, "created_by": 1, "location_types": [1], "longitude": -76.9998017}}{"pk": 2253, "model": "vp.address", "fields": {"city": null, "display_address": null, "house_number": "175", "state": null, "street": "R Street Northeast", "postal_code": null}}{"pk": 2253, "model": "vp.location", "fields": {"phone_number": null, "website": null, "open_street_map_id": 737129969, "name": "Tradewinds Specialty Imports", "product_categories": [1], "address": 2253, "latitude": 38.9123763, "created_by": 1, "location_types": [1], "longitude": -77.0041405}}{"pk": 2254, "model": "vp.address", "fields": {"city": "Washington", "display_address": null, "house_number": "1626", "state": "DC", "street": "North Capitol Street NW", "postal_code": "20001"}}{"pk": 2254, "model": "vp.location", "fields": {"phone_number": null, "website": null, "open_street_map_id": 3665045357, "name": "Old Engine 12 Restaurant", "product_categories": [], "address": 2254, "latitude": 38.9120196, "created_by": 1, "location_types": [3], "longitude": -77.0093093}}{"pk": 2255, "model": "vp.address", "fields": {"city": "Washington", "display_address": null, "house_number": "1648", "state": "DC", "street": "North Capitol Street", "postal_code": "20001"}}{"pk": 2255, "model": "vp.location", "fields": {"phone_number": null, "website": null, "open_street_map_id": 3665047537, "name": "Pub and the People", "product_categories": [], "address": 2255, "latitude": 38.9124266, "created_by": 1, "location_types": [3], "longitude": -77.009312}}{"pk": 2256, "model": "vp.address", "fields": {"city": null, "display_address": null, "house_number": "2205", "state": null, "street": "4th Street Northeast", "postal_code": null}}{"pk": 2256, "model": "vp.location", "fields": {"phone_number": null, "website": null, "open_street_map_id": 737129876, "name": "New Star Supermarket", "product_categories": [2], "address": 2256, "latitude": 38.9194256, "created_by": 1, "location_types": [1], "longitude": -77.0003155}}{"pk": 2257, "model": "vp.address", "fields": {"city": null, "display_address": null, "house_number": "2324", "state": null, "street": "North Capitol Street NW", "postal_code": null}}{"pk": 2257, "model": "vp.location", "fields": {"phone_number": null, "website": null, "open_street_map_id": 740376924, "name": "Sunbeam Market", "product_categories": [3], "address": 2257, "latitude": 38.9211478, "created_by": 1, "location_types": [1], "longitude": -77.0093752}}{"pk": 2258, "model": "vp.address", "fields": {"city": null, "display_address": null, "house_number": "2501", "state": null, "street": "North Capitol Street NE", "postal_code": null}}{"pk": 2258, "model": "vp.location", "fields": {"phone_number": null, "website": null, "open_street_map_id": 737129832, "name": "Fairway Market", "product_categories": [3], "address": 2258, "latitude": 38.9225243, "created_by": 1, "location_types": [1], "longitude": -77.0087296}}{"pk": 2259, "model": "vp.address", "fields": {"city": null, "display_address": null, "house_number": "2215", "state": null, "street": "5th Street Northeast", "postal_code": null}}{"pk": 2259, "model": "vp.location", "fields": {"phone_number": null, "website": null, "open_street_map_id": 737129970, "name": "Calypso Organic Selections", "product_categories": [1], "address": 2259, "latitude": 38.9195124, "created_by": 1, "location_types": [1], "longitude": -76.9991514}}{"pk": 2260, "model": "vp.address", "fields": {"city": null, "display_address": null, "house_number": "2723", "state": null, "street": "7th Street Northeast", "postal_code": null}}{"pk": 2260, "model": "vp.location", "fields": {"phone_number": null, "website": null, "open_street_map_id": 737129877, "name": "Franklin Market", "product_categories": [3], "address": 2260, "latitude": 38.9254107, "created_by": 1, "location_types": [1], "longitude": -76.9959258}}{"pk": 2261, "model": "vp.address", "fields": {"city": null, "display_address": null, "house_number": "1050", "state": null, "street": "Brentwood Rd NE", "postal_code": null}}{"pk": 2261, "model": "vp.location", "fields": {"phone_number": "2022813900", "website": null, "open_street_map_id": 735126491, "name": "Giant", "product_categories": [2], "address": 2261, "latitude": 38.919222, "created_by": 1, "location_types": [1], "longitude": -76.9924287}}{"pk": 2262, "model": "vp.address", "fields": {"city": null, "display_address": null, "house_number": "401", "state": null, "street": "Rhode Island Avenue Northeast", "postal_code": null}}{"pk": 2262, "model": "vp.location", "fields": {"phone_number": null, "website": null, "open_street_map_id": 737129984, "name": "Mac's Wine & Liquors", "product_categories": [1], "address": 2262, "latitude": 38.9195915, "created_by": 1, "location_types": [1], "longitude": -77.0003692}}{"pk": 2263, "model": "vp.address", "fields": {"city": null, "display_address": null, "house_number": "914", "state": null, "street": "Rhode Island Avenue Northeast", "postal_code": null}}{"pk": 2263, "model": "vp.location", "fields": {"phone_number": null, "website": null, "open_street_map_id": 737129883, "name": "Rhode Island Liquor", "product_categories": [1], "address": 2263, "latitude": 38.9223678, "created_by": 1, "location_types": [1], "longitude": -76.9933435}}{"pk": 2264, "model": "vp.address", "fields": {"city": null, "display_address": null, "house_number": "2815", "state": null, "street": "7th Street Northeast", "postal_code": null}}{"pk": 2264, "model": "vp.location", "fields": {"phone_number": null, "website": null, "open_street_map_id": 737145416, "name": "Brookland Supermarket & Deli", "product_categories": [3], "address": 2264, "latitude": 38.926123, "created_by": 1, "location_types": [1], "longitude": -76.9958684}}{"pk": 2265, "model": "vp.address", "fields": {"city": null, "display_address": null, "house_number": "415", "state": null, "street": "Rhode Island Avenue Northeast", "postal_code": null}}{"pk": 2265, "model": "vp.location", "fields": {"phone_number": null, "website": null, "open_street_map_id": 737129953, "name": "Sun Market", "product_categories": [3], "address": 2265, "latitude": 38.9196188, "created_by": 1, "location_types": [1], "longitude": -76.9997757}}{"pk": 2266, "model": "vp.address", "fields": {"city": null, "display_address": null, "house_number": "2303", "state": null, "street": "4th Street Northeast", "postal_code": null}}{"pk": 2266, "model": "vp.location", "fields": {"phone_number": null, "website": null, "open_street_map_id": 737129987, "name": "Edgewood Liquors", "product_categories": [1], "address": 2266, "latitude": 38.9203462, "created_by": 1, "location_types": [1], "longitude": -77.0003235}}