{"pk": 276, "model": "vp.address", "fields": {"city": null, "display_address": null, "house_number": null, "state": null, "street": null, "postal_code": null}}{"pk": 276, "model": "vp.location", "fields": {"phone_number": null, "website": null, "open_street_map_id": 2299059136, "name": "Food Factory", "product_categories": [], "address": 276, "latitude": 38.9909735, "created_by": 1, "location_types": [3], "longitude": -76.9326342}}{"pk": 277, "model": "vp.address", "fields": {"city": "College Park", "display_address": null, "house_number": null, "state": null, "street": "Baltimore Avenue", "postal_code": null}}{"pk": 277, "model": "vp.location", "fields": {"phone_number": null, "website": null, "open_street_map_id": 2888480201, "name": "Royal Farms", "product_categories": [3], "address": 277, "latitude": 38.991776, "created_by": 1, "location_types": [1], "longitude": -76.933936}}{"pk": 278, "model": "vp.address", "fields": {"city": "College Park", "display_address": null, "house_number": null, "state": null, "street": "Baltimore Avenue", "postal_code": null}}{"pk": 278, "model": "vp.location", "fields": {"phone_number": null, "website": null, "open_street_map_id": 2888480401, "name": "Pizza Authentica", "product_categories": [], "address": 278, "latitude": 38.992665, "created_by": 1, "location_types": [3], "longitude": -76.933477}}{"pk": 279, "model": "vp.address", "fields": {"city": "College Park", "display_address": null, "house_number": null, "state": null, "street": "Baltimore Avenue", "postal_code": null}}{"pk": 279, "model": "vp.location", "fields": {"phone_number": null, "website": null, "open_street_map_id": 2888481201, "name": "Bobby's Burger Bar", "product_categories": [], "address": 279, "latitude": 38.991151, "created_by": 1, "location_types": [3], "longitude": -76.934196}}{"pk": 280, "model": "vp.address", "fields": {"city": null, "display_address": null, "house_number": "8150", "state": null, "street": "Baltimore Avenue", "postal_code": "20740"}}{"pk": 280, "model": "vp.location", "fields": {"phone_number": null, "website": "http://www.looneyspubmd.com/college_park.html", "open_street_map_id": 2467270027, "name": "Looney's Pub", "product_categories": [], "address": 280, "latitude": 38.9908682, "created_by": 1, "location_types": [2], "longitude": -76.9345543}}{"pk": 281, "model": "vp.address", "fields": {"city": "College Park, MD", "display_address": null, "house_number": null, "state": null, "street": "8135 Baltimore Ave.", "postal_code": null}}{"pk": 281, "model": "vp.location", "fields": {"phone_number": null, "website": null, "open_street_map_id": 3589227093, "name": "Town Hall Liquors", "product_categories": [], "address": 281, "latitude": 38.9908637, "created_by": 1, "location_types": [2], "longitude": -76.9336358}}{"pk": 282, "model": "vp.address", "fields": {"city": null, "display_address": null, "house_number": null, "state": null, "street": null, "postal_code": null}}{"pk": 282, "model": "vp.location", "fields": {"phone_number": null, "website": null, "open_street_map_id": 3111896687, "name": "Safeway", "product_categories": [2], "address": 282, "latitude": 39.0841601, "created_by": 1, "location_types": [1], "longitude": -76.9463692}}{"pk": 283, "model": "vp.address", "fields": {"city": null, "display_address": null, "house_number": null, "state": null, "street": null, "postal_code": null}}{"pk": 283, "model": "vp.location", "fields": {"phone_number": null, "website": null, "open_street_map_id": 3703937325, "name": "Chuck E Cheese's", "product_categories": [], "address": 283, "latitude": 39.081882, "created_by": 1, "location_types": [3], "longitude": -76.946067}}{"pk": 284, "model": "vp.address", "fields": {"city": null, "display_address": null, "house_number": "15420", "state": null, "street": "Old Columbia Pike", "postal_code": null}}{"pk": 284, "model": "vp.location", "fields": {"phone_number": null, "website": "http://www.oldhickorygrille.com/", "open_street_map_id": 2305830969, "name": "Old Hickory Grill", "product_categories": [], "address": 284, "latitude": 39.1089615, "created_by": 1, "location_types": [3], "longitude": -76.9363388}}{"pk": 285, "model": "vp.address", "fields": {"city": null, "display_address": null, "house_number": "15602", "state": null, "street": "Old Columbia Pike", "postal_code": "20866"}}{"pk": 285, "model": "vp.location", "fields": {"phone_number": null, "website": "http://www.zenasiangrillsushi.com", "open_street_map_id": 2305827547, "name": "Zen Asian Grill & Sushi", "product_categories": [], "address": 285, "latitude": 39.1119335, "created_by": 1, "location_types": [3], "longitude": -76.9348663}}{"pk": 286, "model": "vp.address", "fields": {"city": null, "display_address": null, "house_number": null, "state": null, "street": null, "postal_code": null}}{"pk": 286, "model": "vp.location", "fields": {"phone_number": null, "website": null, "open_street_map_id": 1817083642, "name": "Super Giant", "product_categories": [2], "address": 286, "latitude": 39.1131466, "created_by": 1, "location_types": [1], "longitude": -76.9351435}}{"pk": 287, "model": "vp.address", "fields": {"city": null, "display_address": null, "house_number": "15721", "state": null, "street": "Columbia Pike", "postal_code": null}}{"pk": 287, "model": "vp.location", "fields": {"phone_number": null, "website": null, "open_street_map_id": 2305837799, "name": "Pepino's Trattoria Italiano", "product_categories": [], "address": 287, "latitude": 39.1137357, "created_by": 1, "location_types": [3], "longitude": -76.931256}}{"pk": 288, "model": "vp.address", "fields": {"city": null, "display_address": null, "house_number": null, "state": null, "street": null, "postal_code": null}}{"pk": 288, "model": "vp.location", "fields": {"phone_number": null, "website": "mimiskabob.com", "open_street_map_id": 2295362040, "name": "Mimi's Kabob", "product_categories": [], "address": 288, "latitude": 39.2044762, "created_by": 1, "location_types": [3], "longitude": -76.9426269}}{"pk": 289, "model": "vp.address", "fields": {"city": null, "display_address": null, "house_number": null, "state": null, "street": null, "postal_code": null}}{"pk": 289, "model": "vp.location", "fields": {"phone_number": null, "website": null, "open_street_map_id": 2295364795, "name": "108 Deli Wine & Spirits", "product_categories": [1], "address": 289, "latitude": 39.2054987, "created_by": 1, "location_types": [1], "longitude": -76.9423867}}{"pk": 290, "model": "vp.address", "fields": {"city": null, "display_address": null, "house_number": null, "state": null, "street": null, "postal_code": null}}{"pk": 290, "model": "vp.location", "fields": {"phone_number": null, "website": null, "open_street_map_id": 2295364797, "name": "Pudgie's Pizza", "product_categories": [], "address": 290, "latitude": 39.205428, "created_by": 1, "location_types": [3], "longitude": -76.9421428}}{"pk": 291, "model": "vp.address", "fields": {"city": null, "display_address": null, "house_number": "6343", "state": null, "street": "Ten Oaks Road", "postal_code": null}}{"pk": 291, "model": "vp.location", "fields": {"phone_number": null, "website": "http://www.sushi-katana.com/", "open_street_map_id": 2305839666, "name": "Katana Sushi", "product_categories": [], "address": 291, "latitude": 39.2065502, "created_by": 1, "location_types": [3], "longitude": -76.9452433}}{"pk": 292, "model": "vp.address", "fields": {"city": null, "display_address": null, "house_number": "6040", "state": null, "street": "Daybreak Circle", "postal_code": "21029"}}{"pk": 292, "model": "vp.location", "fields": {"phone_number": null, "website": "http://www.riverhillsportsgrille.com/", "open_street_map_id": 2308982516, "name": "RIver Hill Sports Grill", "product_categories": [], "address": 292, "latitude": 39.2113973, "created_by": 1, "location_types": [3], "longitude": -76.9349823}}{"pk": 293, "model": "vp.address", "fields": {"city": null, "display_address": null, "house_number": null, "state": null, "street": null, "postal_code": null}}{"pk": 293, "model": "vp.location", "fields": {"phone_number": null, "website": null, "open_street_map_id": 3398880793, "name": "El Azateca", "product_categories": [], "address": 293, "latitude": 39.212849, "created_by": 1, "location_types": [3], "longitude": -76.937048}}{"pk": 294, "model": "vp.address", "fields": {"city": null, "display_address": null, "house_number": null, "state": null, "street": null, "postal_code": null}}{"pk": 294, "model": "vp.location", "fields": {"phone_number": null, "website": null, "open_street_map_id": 3399022320, "name": "Fast Wok", "product_categories": [], "address": 294, "latitude": 39.2132883, "created_by": 1, "location_types": [3], "longitude": -76.9366092}}{"pk": 295, "model": "vp.address", "fields": {"city": null, "display_address": null, "house_number": null, "state": null, "street": null, "postal_code": null}}{"pk": 295, "model": "vp.location", "fields": {"phone_number": null, "website": null, "open_street_map_id": 3399022593, "name": "Village Liquors", "product_categories": [1], "address": 295, "latitude": 39.2130203, "created_by": 1, "location_types": [1], "longitude": -76.9368962}}{"pk": 296, "model": "vp.address", "fields": {"city": null, "display_address": null, "house_number": null, "state": null, "street": null, "postal_code": null}}{"pk": 296, "model": "vp.location", "fields": {"phone_number": null, "website": null, "open_street_map_id": 2776314231, "name": "Ledo Pizza & Pasta", "product_categories": [], "address": 296, "latitude": 39.210454, "created_by": 1, "location_types": [3], "longitude": -76.935393}}{"pk": 297, "model": "vp.address", "fields": {"city": null, "display_address": null, "house_number": null, "state": null, "street": null, "postal_code": null}}{"pk": 297, "model": "vp.location", "fields": {"phone_number": null, "website": null, "open_street_map_id": 3089496165, "name": "Anthony's Pizza and Pasta", "product_categories": [], "address": 297, "latitude": 39.212234, "created_by": 1, "location_types": [3], "longitude": -76.938396}}{"pk": 298, "model": "vp.address", "fields": {"city": null, "display_address": null, "house_number": null, "state": null, "street": null, "postal_code": null}}{"pk": 298, "model": "vp.location", "fields": {"phone_number": null, "website": null, "open_street_map_id": 2305840431, "name": "Giant Food", "product_categories": [2], "address": 298, "latitude": 39.2115053, "created_by": 1, "location_types": [1], "longitude": -76.935651}}{"pk": 299, "model": "vp.address", "fields": {"city": null, "display_address": null, "house_number": "7305", "state": null, "street": null, "postal_code": null}}{"pk": 299, "model": "vp.location", "fields": {"phone_number": null, "website": null, "open_street_map_id": 705572845, "name": "7-Eleven", "product_categories": [3], "address": 299, "latitude": 38.9693155, "created_by": 1, "location_types": [1], "longitude": -77.1387263}}{"pk": 300, "model": "vp.address", "fields": {"city": null, "display_address": null, "house_number": null, "state": null, "street": null, "postal_code": null}}{"pk": 300, "model": "vp.location", "fields": {"phone_number": null, "website": null, "open_street_map_id": 2365729877, "name": "Panera", "product_categories": [], "address": 300, "latitude": 39.400913, "created_by": 1, "location_types": [3], "longitude": -76.945657}}{"pk": 301, "model": "vp.address", "fields": {"city": null, "display_address": null, "house_number": null, "state": null, "street": null, "postal_code": null}}{"pk": 301, "model": "vp.location", "fields": {"phone_number": null, "website": null, "open_street_map_id": 3675717746, "name": null, "product_categories": [3], "address": 301, "latitude": 39.4643341, "created_by": 1, "location_types": [1], "longitude": -76.9340712}}{"pk": 302, "model": "vp.address", "fields": {"city": null, "display_address": null, "house_number": null, "state": null, "street": null, "postal_code": null}}{"pk": 302, "model": "vp.location", "fields": {"phone_number": null, "website": null, "open_street_map_id": 2391065972, "name": null, "product_categories": [], "address": 302, "latitude": 38.8497304, "created_by": 1, "location_types": [3], "longitude": -76.9243114}}{"pk": 303, "model": "vp.address", "fields": {"city": null, "display_address": null, "house_number": null, "state": null, "street": null, "postal_code": null}}{"pk": 303, "model": "vp.location", "fields": {"phone_number": null, "website": null, "open_street_map_id": 2391065900, "name": null, "product_categories": [1], "address": 303, "latitude": 38.8495027, "created_by": 1, "location_types": [1], "longitude": -76.9255908}}{"pk": 304, "model": "vp.address", "fields": {"city": "Washington", "display_address": null, "house_number": "5581", "state": "DC", "street": "Central Avenue Southeast", "postal_code": null}}{"pk": 304, "model": "vp.location", "fields": {"phone_number": null, "website": null, "open_street_map_id": 737080348, "name": "Seymours Liquors", "product_categories": [1], "address": 304, "latitude": 38.885589, "created_by": 1, "location_types": [1], "longitude": -76.9190357}}{"pk": 305, "model": "vp.address", "fields": {"city": null, "display_address": null, "house_number": "615", "state": null, "street": "Division Avenue NE", "postal_code": null}}{"pk": 305, "model": "vp.location", "fields": {"phone_number": null, "website": null, "open_street_map_id": 737495058, "name": "A-1 Grocery", "product_categories": [2], "address": 305, "latitude": 38.8978641, "created_by": 1, "location_types": [1], "longitude": -76.9255254}}{"pk": 306, "model": "vp.address", "fields": {"city": "Washington", "display_address": null, "house_number": "5319", "state": "DC", "street": "East Capitol Street Southeast", "postal_code": "20019"}}{"pk": 306, "model": "vp.location", "fields": {"phone_number": null, "website": null, "open_street_map_id": 737080408, "name": "Toni's Market", "product_categories": [3], "address": 306, "latitude": 38.8894113, "created_by": 1, "location_types": [1], "longitude": -76.9253064}}{"pk": 307, "model": "vp.address", "fields": {"city": null, "display_address": null, "house_number": "605", "state": null, "street": "Division Avenue NE", "postal_code": null}}{"pk": 307, "model": "vp.location", "fields": {"phone_number": null, "website": null, "open_street_map_id": 737495057, "name": "Strand Liquors", "product_categories": [1], "address": 307, "latitude": 38.8973858, "created_by": 1, "location_types": [1], "longitude": -76.9257546}}{"pk": 308, "model": "vp.address", "fields": {"city": null, "display_address": null, "house_number": "405", "state": null, "street": "61st Street Northeast", "postal_code": "20019"}}{"pk": 308, "model": "vp.location", "fields": {"phone_number": null, "website": null, "open_street_map_id": 2962649630, "name": "Skip's Liquors", "product_categories": [1], "address": 308, "latitude": 38.8949019, "created_by": 1, "location_types": [1], "longitude": -76.9133992}}{"pk": 309, "model": "vp.address", "fields": {"city": null, "display_address": null, "house_number": null, "state": null, "street": null, "postal_code": null}}{"pk": 309, "model": "vp.location", "fields": {"phone_number": null, "website": null, "open_street_map_id": 2162615415, "name": "Alamo Restaurant", "product_categories": [], "address": 309, "latitude": 38.9574927, "created_by": 1, "location_types": [3], "longitude": -76.9221353}}{"pk": 310, "model": "vp.address", "fields": {"city": null, "display_address": null, "house_number": null, "state": null, "street": null, "postal_code": null}}{"pk": 310, "model": "vp.location", "fields": {"phone_number": null, "website": null, "open_street_map_id": 2348632229, "name": "La Grande Supermarket", "product_categories": [2], "address": 310, "latitude": 38.9582931, "created_by": 1, "location_types": [1], "longitude": -76.9170186}}{"pk": 311, "model": "vp.address", "fields": {"city": null, "display_address": null, "house_number": null, "state": null, "street": null, "postal_code": null}}{"pk": 311, "model": "vp.location", "fields": {"phone_number": null, "website": null, "open_street_map_id": 2367807641, "name": "7-11", "product_categories": [3], "address": 311, "latitude": 38.9561066, "created_by": 1, "location_types": [1], "longitude": -76.921988}}{"pk": 312, "model": "vp.address", "fields": {"city": null, "display_address": null, "house_number": null, "state": null, "street": null, "postal_code": null}}{"pk": 312, "model": "vp.location", "fields": {"phone_number": null, "website": null, "open_street_map_id": 2367809478, "name": "International House of Pancakes", "product_categories": [], "address": 312, "latitude": 38.9584551, "created_by": 1, "location_types": [3], "longitude": -76.9198717}}{"pk": 313, "model": "vp.address", "fields": {"city": null, "display_address": null, "house_number": null, "state": null, "street": null, "postal_code": null}}{"pk": 313, "model": "vp.location", "fields": {"phone_number": null, "website": null, "open_street_map_id": 2154486771, "name": "Boston Market", "product_categories": [], "address": 313, "latitude": 38.9606793, "created_by": 1, "location_types": [3], "longitude": -76.9194292}}{"pk": 314, "model": "vp.address", "fields": {"city": null, "display_address": null, "house_number": null, "state": null, "street": null, "postal_code": null}}{"pk": 314, "model": "vp.location", "fields": {"phone_number": null, "website": null, "open_street_map_id": 2367807121, "name": "Megamart International Food", "product_categories": [2], "address": 314, "latitude": 38.9593019, "created_by": 1, "location_types": [1], "longitude": -76.9173477}}{"pk": 315, "model": "vp.address", "fields": {"city": null, "display_address": null, "house_number": "6408", "state": "MD", "street": "Kenilworth Avenue", "postal_code": null}}{"pk": 315, "model": "vp.location", "fields": {"phone_number": null, "website": null, "open_street_map_id": 2340429756, "name": "Pollo Fiesta Restaurant", "product_categories": [], "address": 315, "latitude": 38.9656031, "created_by": 1, "location_types": [3], "longitude": -76.9194108}}{"pk": 316, "model": "vp.address", "fields": {"city": null, "display_address": null, "house_number": null, "state": null, "street": null, "postal_code": null}}{"pk": 316, "model": "vp.location", "fields": {"phone_number": null, "website": null, "open_street_map_id": 807108555, "name": "94th Aero Squadron", "product_categories": [], "address": 316, "latitude": 38.9782437, "created_by": 1, "location_types": [3], "longitude": -76.9211727}}{"pk": 317, "model": "vp.address", "fields": {"city": null, "display_address": null, "house_number": null, "state": null, "street": null, "postal_code": null}}{"pk": 317, "model": "vp.location", "fields": {"phone_number": null, "website": null, "open_street_map_id": 1799903080, "name": "7-11", "product_categories": [3], "address": 317, "latitude": 38.998427, "created_by": 1, "location_types": [1], "longitude": -76.9247648}}{"pk": 318, "model": "vp.address", "fields": {"city": null, "display_address": null, "house_number": null, "state": null, "street": null, "postal_code": null}}{"pk": 318, "model": "vp.location", "fields": {"phone_number": null, "website": null, "open_street_map_id": 1951408827, "name": "Giant", "product_categories": [2], "address": 318, "latitude": 38.999493, "created_by": 1, "location_types": [1], "longitude": -76.9111263}}{"pk": 319, "model": "vp.address", "fields": {"city": null, "display_address": null, "house_number": "9322", "state": null, "street": "Baltimore Avenue", "postal_code": "20740"}}{"pk": 319, "model": "vp.location", "fields": {"phone_number": null, "website": null, "open_street_map_id": 3066112008, "name": null, "product_categories": [3], "address": 319, "latitude": 39.0075619, "created_by": 1, "location_types": [1], "longitude": -76.929866}}{"pk": 320, "model": "vp.address", "fields": {"city": null, "display_address": null, "house_number": null, "state": null, "street": null, "postal_code": null}}{"pk": 320, "model": "vp.location", "fields": {"phone_number": null, "website": null, "open_street_map_id": 3067777197, "name": "Sakura Seafood Buffet", "product_categories": [], "address": 320, "latitude": 39.000735, "created_by": 1, "location_types": [3], "longitude": -76.9305108}}{"pk": 321, "model": "vp.address", "fields": {"city": null, "display_address": null, "house_number": null, "state": null, "street": null, "postal_code": null}}{"pk": 321, "model": "vp.location", "fields": {"phone_number": null, "website": null, "open_street_map_id": 1089089766, "name": "Moose Creek Steakhouse", "product_categories": [], "address": 321, "latitude": 39.0208022, "created_by": 1, "location_types": [3], "longitude": -76.9264739}}{"pk": 322, "model": "vp.address", "fields": {"city": null, "display_address": null, "house_number": "838C", "state": null, "street": "Rockville Pike", "postal_code": null}}{"pk": 322, "model": "vp.location", "fields": {"phone_number": null, "website": null, "open_street_map_id": 1319196834, "name": "Sol de Espana", "product_categories": [], "address": 322, "latitude": 39.0760214, "created_by": 1, "location_types": [3], "longitude": -77.1372122}}{"pk": 323, "model": "vp.address", "fields": {"city": null, "display_address": null, "house_number": null, "state": null, "street": null, "postal_code": null}}{"pk": 323, "model": "vp.location", "fields": {"phone_number": null, "website": null, "open_street_map_id": 1321233737, "name": "Bloom", "product_categories": [2], "address": 323, "latitude": 39.0741406, "created_by": 1, "location_types": [1], "longitude": -77.1378118}}{"pk": 324, "model": "vp.address", "fields": {"city": "Rockville", "display_address": null, "house_number": null, "state": null, "street": "Rockville Pike", "postal_code": "20850"}}{"pk": 324, "model": "vp.location", "fields": {"phone_number": null, "website": null, "open_street_map_id": 2624969369, "name": "Ihop", "product_categories": [], "address": 324, "latitude": 39.0776445, "created_by": 1, "location_types": [3], "longitude": -77.1411181}}{"pk": 325, "model": "vp.address", "fields": {"city": null, "display_address": null, "house_number": null, "state": null, "street": null, "postal_code": null}}{"pk": 325, "model": "vp.location", "fields": {"phone_number": null, "website": null, "open_street_map_id": 2305319408, "name": "Ledo Pizza", "product_categories": [], "address": 325, "latitude": 39.1522292, "created_by": 1, "location_types": [3], "longitude": -76.9239872}}{"pk": 326, "model": "vp.address", "fields": {"city": null, "display_address": null, "house_number": "11845", "state": null, "street": "Scaggsville Road", "postal_code": "20759"}}{"pk": 326, "model": "vp.location", "fields": {"phone_number": null, "website": null, "open_street_map_id": 2305319499, "name": "Fulton Wine & Spirits", "product_categories": [1], "address": 326, "latitude": 39.1519921, "created_by": 1, "location_types": [1], "longitude": -76.9243251}}