{"pk": 327, "model": "vp.address", "fields": {"city": null, "display_address": null, "house_number": null, "state": null, "street": null, "postal_code": null}}{"pk": 327, "model": "vp.location", "fields": {"phone_number": null, "website": "http://www.gordonbiersch.com/locations/rockville-md", "open_street_map_id": 792203432, "name": "Gordon Biersch", "product_categories": [], "address": 327, "latitude": 39.0852091, "created_by": 1, "location_types": [3], "longitude": -77.1508982}}{"pk": 328, "model": "vp.address", "fields": {"city": null, "display_address": null, "house_number": null, "state": null, "street": null, "postal_code": null}}{"pk": 328, "model": "vp.location", "fields": {"phone_number": null, "website": null, "open_street_map_id": 1688047471, "name": "California Tortilla", "product_categories": [], "address": 328, "latitude": 39.0838979, "created_by": 1, "location_types": [3], "longitude": -77.1502626}}{"pk": 329, "model": "vp.address", "fields": {"city": "Rockville", "display_address": null, "house_number": "199K", "state": "MD", "street": "East Montgomery Avenue", "postal_code": "20850"}}{"pk": 329, "model": "vp.location", "fields": {"phone_number": null, "website": null, "open_street_map_id": 3466273445, "name": "Potbelly Sandwich Shop", "product_categories": [], "address": 329, "latitude": 39.0839585, "created_by": 1, "location_types": [3], "longitude": -77.1494641}}{"pk": 330, "model": "vp.address", "fields": {"city": "Rockville", "display_address": null, "house_number": "199", "state": "MD", "street": "E Montgomery Ave,", "postal_code": "20850"}}{"pk": 330, "model": "vp.location", "fields": {"phone_number": null, "website": null, "open_street_map_id": 3527237201, "name": "Giuseppi's Pizza", "product_categories": [], "address": 330, "latitude": 39.0839694, "created_by": 1, "location_types": [3], "longitude": -77.1493453}}{"pk": 331, "model": "vp.address", "fields": {"city": null, "display_address": null, "house_number": null, "state": null, "street": null, "postal_code": null}}{"pk": 331, "model": "vp.location", "fields": {"phone_number": null, "website": null, "open_street_map_id": 1655356263, "name": "Royal Farms", "product_categories": [3], "address": 331, "latitude": 39.5396311, "created_by": 1, "location_types": [1], "longitude": -76.9304188}}{"pk": 332, "model": "vp.address", "fields": {"city": null, "display_address": null, "house_number": null, "state": null, "street": null, "postal_code": null}}{"pk": 332, "model": "vp.location", "fields": {"phone_number": null, "website": null, "open_street_map_id": 727830091, "name": "Ledo Pizza", "product_categories": [], "address": 332, "latitude": 39.1463018, "created_by": 1, "location_types": [3], "longitude": -77.1445541}}{"pk": 333, "model": "vp.address", "fields": {"city": null, "display_address": null, "house_number": null, "state": null, "street": null, "postal_code": null}}{"pk": 333, "model": "vp.location", "fields": {"phone_number": null, "website": null, "open_street_map_id": 727830046, "name": "Noches de Lima", "product_categories": [], "address": 333, "latitude": 39.1463037, "created_by": 1, "location_types": [3], "longitude": -77.1448852}}{"pk": 334, "model": "vp.address", "fields": {"city": null, "display_address": null, "house_number": null, "state": null, "street": null, "postal_code": null}}{"pk": 334, "model": "vp.location", "fields": {"phone_number": null, "website": null, "open_street_map_id": 1683893891, "name": "Beer - Wine", "product_categories": [1], "address": 334, "latitude": 39.1442077, "created_by": 1, "location_types": [1], "longitude": -77.1442305}}{"pk": 335, "model": "vp.address", "fields": {"city": null, "display_address": null, "house_number": null, "state": null, "street": null, "postal_code": null}}{"pk": 335, "model": "vp.location", "fields": {"phone_number": null, "website": null, "open_street_map_id": 1683893712, "name": "Beer - Wine", "product_categories": [1], "address": 335, "latitude": 39.1457032, "created_by": 1, "location_types": [1], "longitude": -77.1454681}}{"pk": 336, "model": "vp.address", "fields": {"city": null, "display_address": null, "house_number": null, "state": null, "street": null, "postal_code": null}}{"pk": 336, "model": "vp.location", "fields": {"phone_number": null, "website": null, "open_street_map_id": 1683893765, "name": "Subway", "product_categories": [], "address": 336, "latitude": 39.1450479, "created_by": 1, "location_types": [3], "longitude": -77.145016}}{"pk": 337, "model": "vp.address", "fields": {"city": null, "display_address": null, "house_number": null, "state": null, "street": null, "postal_code": null}}{"pk": 337, "model": "vp.location", "fields": {"phone_number": null, "website": null, "open_street_map_id": 993403426, "name": "Alt Lands Ranch", "product_categories": [], "address": 337, "latitude": 39.8925704, "created_by": 1, "location_types": [2], "longitude": -76.9277222}}{"pk": 338, "model": "vp.address", "fields": {"city": null, "display_address": null, "house_number": null, "state": null, "street": null, "postal_code": null}}{"pk": 338, "model": "vp.location", "fields": {"phone_number": null, "website": null, "open_street_map_id": 1837393990, "name": "Italian Inn", "product_categories": [], "address": 338, "latitude": 38.9384801, "created_by": 1, "location_types": [3], "longitude": -76.9095003}}{"pk": 339, "model": "vp.address", "fields": {"city": null, "display_address": null, "house_number": "11011", "state": null, "street": "Baltimore Avenue", "postal_code": "20705"}}{"pk": 339, "model": "vp.location", "fields": {"phone_number": null, "website": "oldlinewine.com", "open_street_map_id": 2001768893, "name": "Old Line Fine Wine, Spirits & Bistro", "product_categories": [1], "address": 339, "latitude": 39.0334908, "created_by": 1, "location_types": [1], "longitude": -76.9070598}}{"pk": 340, "model": "vp.address", "fields": {"city": null, "display_address": null, "house_number": null, "state": null, "street": null, "postal_code": null}}{"pk": 340, "model": "vp.location", "fields": {"phone_number": null, "website": null, "open_street_map_id": 3270465167, "name": "7-Eleven", "product_categories": [3], "address": 340, "latitude": 39.04088, "created_by": 1, "location_types": [1], "longitude": -76.9048724}}{"pk": 341, "model": "vp.address", "fields": {"city": null, "display_address": null, "house_number": null, "state": null, "street": null, "postal_code": null}}{"pk": 341, "model": "vp.location", "fields": {"phone_number": null, "website": null, "open_street_map_id": 2305184433, "name": null, "product_categories": [1], "address": 341, "latitude": 39.1436311, "created_by": 1, "location_types": [1], "longitude": -76.8980087}}{"pk": 342, "model": "vp.address", "fields": {"city": null, "display_address": null, "house_number": null, "state": null, "street": null, "postal_code": null}}{"pk": 342, "model": "vp.location", "fields": {"phone_number": null, "website": null, "open_street_map_id": 2305184808, "name": "J&P Pizza", "product_categories": [], "address": 342, "latitude": 39.1436685, "created_by": 1, "location_types": [3], "longitude": -76.8979349}}{"pk": 343, "model": "vp.address", "fields": {"city": null, "display_address": null, "house_number": null, "state": null, "street": null, "postal_code": null}}{"pk": 343, "model": "vp.location", "fields": {"phone_number": null, "website": null, "open_street_map_id": 2305187609, "name": "Ranazul", "product_categories": [], "address": 343, "latitude": 39.1481273, "created_by": 1, "location_types": [3], "longitude": -76.9059279}}{"pk": 344, "model": "vp.address", "fields": {"city": null, "display_address": null, "house_number": null, "state": null, "street": null, "postal_code": null}}{"pk": 344, "model": "vp.location", "fields": {"phone_number": null, "website": null, "open_street_map_id": 2306726707, "name": "Sushi Tendou", "product_categories": [], "address": 344, "latitude": 39.1489642, "created_by": 1, "location_types": [3], "longitude": -76.909326}}{"pk": 345, "model": "vp.address", "fields": {"city": null, "display_address": null, "house_number": null, "state": null, "street": null, "postal_code": null}}{"pk": 345, "model": "vp.location", "fields": {"phone_number": null, "website": "thegrilleml.com", "open_street_map_id": 2306727689, "name": "The Grille at Maple Lawn", "product_categories": [], "address": 345, "latitude": 39.1478992, "created_by": 1, "location_types": [3], "longitude": -76.9061556}}{"pk": 346, "model": "vp.address", "fields": {"city": null, "display_address": null, "house_number": null, "state": null, "street": null, "postal_code": null}}{"pk": 346, "model": "vp.location", "fields": {"phone_number": null, "website": null, "open_street_map_id": 2306726930, "name": "Loony's Pub", "product_categories": [], "address": 346, "latitude": 39.1483818, "created_by": 1, "location_types": [3], "longitude": -76.906853}}{"pk": 347, "model": "vp.address", "fields": {"city": null, "display_address": null, "house_number": "8300", "state": null, "street": "Ice Crystal Drive", "postal_code": "20723"}}{"pk": 347, "model": "vp.location", "fields": {"phone_number": null, "website": "http://www.foodlion.com/", "open_street_map_id": 2305172102, "name": "Food Lion", "product_categories": [2], "address": 347, "latitude": 39.1440869, "created_by": 1, "location_types": [1], "longitude": -76.8999292}}{"pk": 348, "model": "vp.address", "fields": {"city": null, "display_address": null, "house_number": null, "state": null, "street": null, "postal_code": null}}{"pk": 348, "model": "vp.location", "fields": {"phone_number": null, "website": null, "open_street_map_id": 3197884879, "name": "i. m. Wine", "product_categories": [1], "address": 348, "latitude": 39.147979, "created_by": 1, "location_types": [1], "longitude": -76.907051}}{"pk": 349, "model": "vp.address", "fields": {"city": "Columbia", "display_address": null, "house_number": "7500", "state": "MD", "street": "Montpelier Road", "postal_code": null}}{"pk": 349, "model": "vp.location", "fields": {"phone_number": null, "website": null, "open_street_map_id": 1351751076, "name": "Tandoori Grill", "product_categories": [], "address": 349, "latitude": 39.1607601, "created_by": 1, "location_types": [3], "longitude": -76.8922293}}{"pk": 350, "model": "vp.address", "fields": {"city": null, "display_address": null, "house_number": null, "state": null, "street": null, "postal_code": null}}{"pk": 350, "model": "vp.location", "fields": {"phone_number": null, "website": null, "open_street_map_id": 1351751093, "name": "Montpelier Liquors", "product_categories": [1], "address": 350, "latitude": 39.1599134, "created_by": 1, "location_types": [1], "longitude": -76.8912451}}{"pk": 351, "model": "vp.address", "fields": {"city": null, "display_address": null, "house_number": null, "state": null, "street": null, "postal_code": null}}{"pk": 351, "model": "vp.location", "fields": {"phone_number": null, "website": null, "open_street_map_id": 1351751125, "name": "Ginza of Tokyo", "product_categories": [], "address": 351, "latitude": 39.1601407, "created_by": 1, "location_types": [3], "longitude": -76.8915068}}{"pk": 352, "model": "vp.address", "fields": {"city": null, "display_address": null, "house_number": null, "state": null, "street": null, "postal_code": null}}{"pk": 352, "model": "vp.location", "fields": {"phone_number": null, "website": null, "open_street_map_id": 1351555296, "name": "Facci", "product_categories": [], "address": 352, "latitude": 39.159811, "created_by": 1, "location_types": [3], "longitude": -76.891128}}{"pk": 353, "model": "vp.address", "fields": {"city": null, "display_address": null, "house_number": null, "state": null, "street": null, "postal_code": null}}{"pk": 353, "model": "vp.location", "fields": {"phone_number": null, "website": null, "open_street_map_id": 1351751192, "name": "Kloby's Smokehouse", "product_categories": [], "address": 353, "latitude": 39.1602968, "created_by": 1, "location_types": [3], "longitude": -76.8917029}}{"pk": 354, "model": "vp.address", "fields": {"city": null, "display_address": null, "house_number": "7500", "state": null, "street": "Montpelier Road", "postal_code": "20723"}}{"pk": 354, "model": "vp.location", "fields": {"phone_number": null, "website": "www.lapalapatoo.com", "open_street_map_id": 1351751210, "name": "La Palapa Too", "product_categories": [], "address": 354, "latitude": 39.1608666, "created_by": 1, "location_types": [3], "longitude": -76.892351}}{"pk": 355, "model": "vp.address", "fields": {"city": null, "display_address": null, "house_number": null, "state": null, "street": null, "postal_code": null}}{"pk": 355, "model": "vp.location", "fields": {"phone_number": null, "website": null, "open_street_map_id": 2305222643, "name": "On The Run", "product_categories": [3], "address": 355, "latitude": 39.160072, "created_by": 1, "location_types": [1], "longitude": -76.892514}}{"pk": 356, "model": "vp.address", "fields": {"city": null, "display_address": null, "house_number": null, "state": null, "street": null, "postal_code": null}}{"pk": 356, "model": "vp.location", "fields": {"phone_number": null, "website": "grille620.com", "open_street_map_id": 2514620120, "name": "Grill 620", "product_categories": [], "address": 356, "latitude": 39.2988048, "created_by": 1, "location_types": [3], "longitude": -76.897431}}{"pk": 357, "model": "vp.address", "fields": {"city": null, "display_address": null, "house_number": null, "state": null, "street": null, "postal_code": null}}{"pk": 357, "model": "vp.location", "fields": {"phone_number": null, "website": null, "open_street_map_id": 2514620121, "name": "Facci Ristorante", "product_categories": [], "address": 357, "latitude": 39.2984789, "created_by": 1, "location_types": [3], "longitude": -76.8976458}}{"pk": 358, "model": "vp.address", "fields": {"city": null, "display_address": null, "house_number": null, "state": null, "street": null, "postal_code": null}}{"pk": 358, "model": "vp.location", "fields": {"phone_number": null, "website": null, "open_street_map_id": 3076691838, "name": "Mimi's Kabob", "product_categories": [], "address": 358, "latitude": 39.2974833, "created_by": 1, "location_types": [3], "longitude": -76.8972635}}{"pk": 359, "model": "vp.address", "fields": {"city": null, "display_address": null, "house_number": null, "state": null, "street": null, "postal_code": null}}{"pk": 359, "model": "vp.location", "fields": {"phone_number": null, "website": null, "open_street_map_id": 2589799869, "name": "Red Parrot", "product_categories": [], "address": 359, "latitude": 39.2993394, "created_by": 1, "location_types": [3], "longitude": -76.8972964}}{"pk": 360, "model": "vp.address", "fields": {"city": null, "display_address": null, "house_number": null, "state": null, "street": null, "postal_code": null}}{"pk": 360, "model": "vp.location", "fields": {"phone_number": null, "website": null, "open_street_map_id": 1907396671, "name": "Trattoria Montese", "product_categories": [], "address": 360, "latitude": 39.3093173, "created_by": 1, "location_types": [3], "longitude": -76.89815}}{"pk": 361, "model": "vp.address", "fields": {"city": null, "display_address": null, "house_number": null, "state": null, "street": null, "postal_code": null}}{"pk": 361, "model": "vp.location", "fields": {"phone_number": null, "website": null, "open_street_map_id": 1070804242, "name": "The Market on the Boulevard", "product_categories": [3], "address": 361, "latitude": 38.9750703, "created_by": 1, "location_types": [1], "longitude": -77.1625154}}{"pk": 362, "model": "vp.address", "fields": {"city": null, "display_address": null, "house_number": null, "state": null, "street": null, "postal_code": null}}{"pk": 362, "model": "vp.location", "fields": {"phone_number": null, "website": null, "open_street_map_id": 1070800312, "name": "My Sushi", "product_categories": [], "address": 362, "latitude": 38.9751079, "created_by": 1, "location_types": [3], "longitude": -77.1627478}}{"pk": 363, "model": "vp.address", "fields": {"city": null, "display_address": null, "house_number": null, "state": null, "street": null, "postal_code": null}}{"pk": 363, "model": "vp.location", "fields": {"phone_number": null, "website": null, "open_street_map_id": 1070801204, "name": "Lucky Garden Chinese Restaurant", "product_categories": [], "address": 363, "latitude": 38.9750933, "created_by": 1, "location_types": [3], "longitude": -77.1626595}}{"pk": 364, "model": "vp.address", "fields": {"city": null, "display_address": null, "house_number": null, "state": null, "street": null, "postal_code": null}}{"pk": 364, "model": "vp.location", "fields": {"phone_number": null, "website": null, "open_street_map_id": 2324951009, "name": null, "product_categories": [3], "address": 364, "latitude": 38.9735988, "created_by": 1, "location_types": [1], "longitude": -77.1555684}}{"pk": 365, "model": "vp.address", "fields": {"city": null, "display_address": null, "house_number": null, "state": null, "street": null, "postal_code": null}}{"pk": 365, "model": "vp.location", "fields": {"phone_number": null, "website": null, "open_street_map_id": 1164580621, "name": "Weis", "product_categories": [2], "address": 365, "latitude": 39.3680932, "created_by": 1, "location_types": [1], "longitude": -77.1445421}}{"pk": 366, "model": "vp.address", "fields": {"city": null, "display_address": null, "house_number": null, "state": null, "street": null, "postal_code": null}}{"pk": 366, "model": "vp.location", "fields": {"phone_number": null, "website": null, "open_street_map_id": 558310136, "name": "Harvey's Store", "product_categories": [3], "address": 366, "latitude": 39.6887373, "created_by": 1, "location_types": [1], "longitude": -77.1472528}}{"pk": 367, "model": "vp.address", "fields": {"city": null, "display_address": null, "house_number": null, "state": null, "street": null, "postal_code": null}}{"pk": 367, "model": "vp.location", "fields": {"phone_number": null, "website": null, "open_street_map_id": 624189996, "name": "Harris Teeter", "product_categories": [2], "address": 367, "latitude": 38.8128362, "created_by": 1, "location_types": [1], "longitude": -77.112618}}{"pk": 368, "model": "vp.address", "fields": {"city": null, "display_address": null, "house_number": null, "state": null, "street": null, "postal_code": null}}{"pk": 368, "model": "vp.location", "fields": {"phone_number": null, "website": null, "open_street_map_id": 2782033302, "name": null, "product_categories": [3], "address": 368, "latitude": 38.8092591, "created_by": 1, "location_types": [1], "longitude": -77.1165301}}{"pk": 369, "model": "vp.address", "fields": {"city": null, "display_address": null, "house_number": null, "state": null, "street": null, "postal_code": null}}{"pk": 369, "model": "vp.location", "fields": {"phone_number": null, "website": null, "open_street_map_id": 1070920716, "name": "Giant", "product_categories": [2], "address": 369, "latitude": 39.0408065, "created_by": 1, "location_types": [1], "longitude": -77.1565075}}{"pk": 370, "model": "vp.address", "fields": {"city": null, "display_address": null, "house_number": null, "state": null, "street": null, "postal_code": null}}{"pk": 370, "model": "vp.location", "fields": {"phone_number": null, "website": null, "open_street_map_id": 1837899952, "name": "GIANT", "product_categories": [2], "address": 370, "latitude": 38.8313674, "created_by": 1, "location_types": [1], "longitude": -77.1253616}}{"pk": 371, "model": "vp.address", "fields": {"city": null, "display_address": null, "house_number": null, "state": null, "street": null, "postal_code": null}}{"pk": 371, "model": "vp.location", "fields": {"phone_number": null, "website": null, "open_street_map_id": 2050423870, "name": "Clyde's At Mark Center", "product_categories": [], "address": 371, "latitude": 38.8333432, "created_by": 1, "location_types": [3], "longitude": -77.1230632}}{"pk": 372, "model": "vp.address", "fields": {"city": "Falls Church", "display_address": null, "house_number": "3815", "state": null, "street": "South George Mason Drive", "postal_code": "22041"}}{"pk": 372, "model": "vp.location", "fields": {"phone_number": null, "website": null, "open_street_map_id": 2932265024, "name": "Fairouz Mediterranean Cafe", "product_categories": [], "address": 372, "latitude": 38.8411385, "created_by": 1, "location_types": [3], "longitude": -77.1192115}}{"pk": 373, "model": "vp.address", "fields": {"city": null, "display_address": null, "house_number": null, "state": null, "street": null, "postal_code": null}}{"pk": 373, "model": "vp.location", "fields": {"phone_number": null, "website": null, "open_street_map_id": 3508932414, "name": "The Chicken Place", "product_categories": [], "address": 373, "latitude": 38.8474043, "created_by": 1, "location_types": [3], "longitude": -77.1227501}}{"pk": 374, "model": "vp.address", "fields": {"city": null, "display_address": null, "house_number": null, "state": null, "street": null, "postal_code": null}}{"pk": 374, "model": "vp.location", "fields": {"phone_number": null, "website": null, "open_street_map_id": 728880480, "name": "Super Giant", "product_categories": [2], "address": 374, "latitude": 38.8496194, "created_by": 1, "location_types": [1], "longitude": -77.1189594}}{"pk": 375, "model": "vp.address", "fields": {"city": null, "display_address": null, "house_number": null, "state": null, "street": null, "postal_code": null}}{"pk": 375, "model": "vp.location", "fields": {"phone_number": null, "website": null, "open_street_map_id": 2572861773, "name": "Two Chefs Pizza", "product_categories": [], "address": 375, "latitude": 38.8782162, "created_by": 1, "location_types": [3], "longitude": -77.1218758}}{"pk": 376, "model": "vp.address", "fields": {"city": null, "display_address": null, "house_number": null, "state": null, "street": null, "postal_code": null}}{"pk": 376, "model": "vp.location", "fields": {"phone_number": null, "website": null, "open_street_map_id": 2918682165, "name": "Pupatella", "product_categories": [], "address": 376, "latitude": 38.877637, "created_by": 1, "location_types": [3], "longitude": -77.1221677}}